Code Insee,Commune,Latitude,Longitude
01010,Anglefort,45.909,5.795
01011,Apremont,46.206,5.658
01012,Aranc,46.002,5.511
01014,Arbent,46.284,5.691
01016,Arbigny,46.478,4.96
01017,Argis,45.934,5.482
01019,Armix,45.854,5.584
01023,Asnières-sur-Saône,46.386,4.884
01024,Attignat,46.286,5.18
01029,Beaupont,46.429,5.26
01031,Bellignat,46.237,5.636
01033,Valserhône,46.107,5.832
01035,Belleydoux,46.253,5.785
01037,Bénonces,45.838,5.483
01040,Béréziat,46.367,5.04
01042,Bey,46.219,4.846
01044,Billiat,46.079,5.766
01046,Biziat,46.227,4.941
01050,Boissey,46.373,4.999
01051,Bolozon,46.196,5.471
01054,Bourg-Saint-Christophe,45.886,5.144
01057,Boz,46.405,4.914
01060,Brénod,46.076,5.614
01063,Brion,46.169,5.547
01064,Briord,45.771,5.485
01067,Ceignes,46.126,5.495
01071,Cessy,46.316,6.078
01074,Chalamont,46.008,5.169
01076,Chaley,45.953,5.537
01078,Challex,46.177,5.971
01080,Champdor-Corcelles,46.02,5.6
01081,Champfromier,46.22,5.822
01082,Chanay,46.006,5.769
01087,Charix,46.186,5.681
01088,Charnoz-sur-Ain,45.874,5.221
01090,Châtenay,46.026,5.205
01094,Chavannes-sur-Reyssouze,46.438,5.007
01096,Chaveyriat,46.199,5.056
01099,Chazey-sur-Ain,45.893,5.255
01101,Chevillard,46.11,5.581
01102,Chevroux,46.382,4.963
01103,Chevry,46.283,6.047
01104,Chézery-Forens,46.223,5.872
01108,Coligny,46.387,5.331
01109,Collonges,46.142,5.9
01112,Condamine,46.106,5.556
01113,Condeissiat,46.154,5.084
01114,Confort,46.154,5.833
01115,Confrançon,46.27,5.058
01118,Corbonod,45.966,5.79
01121,Corlier,46.034,5.496
01124,Cormoz,46.434,5.222
01127,Courmangoux,46.327,5.356
01128,Courtes,46.457,5.111
01129,Crans,45.966,5.195
01130,Bresse Vallons,46.313,5.178
01135,Crozet,46.292,5.995
01139,Curciat-Dongalon,46.488,5.163
01140,Curtafond,46.273,5.102
01143,Divonne-les-Bains,46.376,6.116
01147,Domsure,46.424,5.293
01148,Dortan,46.313,5.642
01152,Échallon,46.227,5.733
01153,Échenevex,46.316,6.019
01155,Évosges,45.965,5.503
01156,Faramans,45.91,5.125
01158,Farges,46.166,5.9
01160,Ferney-Voltaire,46.252,6.108
01163,Foissiat,46.378,5.185
01167,Garnerans,46.214,4.828
01170,Béard-Géovreissiat,46.19,5.551
01171,Géovreisset,46.251,5.613
01173,Gex,46.347,6.046
01174,Giron,46.223,5.78
01175,Gorrevod,46.415,4.951
01180,Grilly,46.332,6.114
01181,Groissiat,46.226,5.611
01185,Plateau d'Hauteville,45.97,5.576
01187,Haut Valromey,46.032,5.703
01188,Illiat,46.187,4.888
01189,Injoux-Génissiat,46.05,5.76
01191,Izenave,46.038,5.524
01192,Izernore,46.218,5.563
01196,Jayat,46.366,5.114
01200,Labalme,46.093,5.494
01204,Le Poizat-Lalleyriat,46.148,5.718
01206,Lantenay,46.054,5.541
01209,Léaz,46.109,5.876
01210,Lélex,46.286,5.929
01212,Lescheroux,46.412,5.151
01214,Leyssard,46.162,5.476
01215,Surjoux-Lhopital,46.024,5.762
01216,Lhuis,45.744,5.536
01219,Lompnas,45.811,5.523
01228,Maillat,46.12,5.528
01229,Malafretaz,46.33,5.144
01230,Mantenay-Montlin,46.43,5.107
01231,Manziat,46.364,4.902
01232,Marboz,46.343,5.244
01236,Marsonnas,46.341,5.064
01237,Martignat,46.203,5.614
01239,Massignieu-de-Rives,45.757,5.762
01240,Matafelon-Granges,46.256,5.54
01244,Meximieux,45.906,5.204
01246,Mézériat,46.242,5.047
01247,Mijoux,46.362,6.009
01252,Mogneneins,46.145,4.82
01255,Montagnieu,45.799,5.464
01257,Montanges,46.173,5.79
01260,Le Montellier,45.929,5.071
01265,Montréal-la-Cluse,46.18,5.595
01266,Montrevel-en-Bresse,46.325,5.113
01267,Nurieux-Volognat,46.183,5.514
01269,Nantua,46.154,5.614
01274,Les Neyrolles,46.134,5.637
01281,Ornex,46.278,6.094
01282,Outriaz,46.068,5.557
01283,Oyonnax,46.26,5.653
01284,Ozan,46.387,4.918
01286,Parves et Nattages,45.744,5.738
01288,Péron,46.191,5.92
01290,Pérouges,45.88,5.18
01291,Perrex,46.246,4.975
01293,Peyriat,46.15,5.506
01295,Peyzieux-sur-Saône,46.123,4.822
01296,Pirajoux,46.386,5.274
01298,Plagne,46.188,5.718
01305,Pont-de-Vaux,46.442,4.929
01307,Port,46.156,5.576
01308,Pougny,46.145,5.951
01309,Pouillat,46.322,5.423
01311,Prémillieu,45.876,5.565
01313,Prévessin-Moëns,46.258,6.072
01323,Reyssouze,46.429,4.913
01325,Rignieux-le-Franc,45.952,5.169
01330,Ruffieu,46.004,5.653
01337,Saint-Bénigne,46.452,4.953
01338,Groslée-Saint-Benoit,45.689,5.584
01346,Saint-Didier-d'Aussiat,46.307,5.058
01348,Saint-Didier-sur-Chalaronne,46.184,4.816
01349,Saint-Éloi,45.932,5.152
01351,Saint-Étienne-sur-Chalaronne,46.147,4.867
01352,Saint-Étienne-sur-Reyssouze,46.403,5.006
01354,Saint-Genis-Pouilly,46.254,6.036
01355,Saint-Genis-sur-Menthon,46.282,5.013
01357,Saint-Germain-de-Joux,46.182,5.747
01360,Saint-Jean-de-Gonville,46.218,5.942
01361,Saint-Jean-de-Niost,45.84,5.212
01364,Saint-Jean-sur-Reyssouze,46.397,5.063
01367,Saint-Julien-sur-Reyssouze,46.4,5.104
01368,Saint-Julien-sur-Veyle,46.202,4.959
01373,Saint-Martin-du-Frêne,46.136,5.571
01375,Saint-Martin-le-Châtel,46.291,5.123
01378,Saint-Maurice-de-Gourdans,45.82,5.17
01380,Saint-Nizier-le-Bouchoux,46.453,5.176
01387,Saint-Sulpice,46.321,5.042
01388,Saint-Trivier-de-Courtes,46.461,5.067
01391,Salavre,46.364,5.347
01392,Samognat,46.265,5.586
01396,Sault-Brénaz,45.865,5.404
01397,Sauverny,46.313,6.11
01399,Ségny,46.294,6.073
01400,Seillonnaz,45.798,5.498
01401,Sergy,46.263,5.989
01403,Serrières-de-Briord,45.813,5.441
01406,Servignat,46.435,5.056
01407,Seyssel,45.948,5.826
01410,Sonthonnax-la-Montagne,46.223,5.506
01412,Sulignat,46.174,4.958
01416,Tenay,45.923,5.514
01419,Thoiry,46.244,5.965
01420,Thoissey,46.17,4.794
01429,Vandeins,46.218,5.082
01432,Verjon,46.346,5.348
01433,Vernoux,46.485,5.106
01435,Versonnex,46.3,6.101
01436,Vesancy,46.361,6.085
01437,Vescours,46.474,5.026
01441,Vieu-d'Izenave,46.085,5.549
01444,Villebois,45.849,5.447
01445,Villemotier,46.346,5.31
01448,Villes,46.095,5.757
01450,Villieu-Loyes-Mollon,45.932,5.23
01454,Virignin,45.727,5.713
01457,Vonnas,46.217,4.997
02001,Abbécourt,49.599,3.177
02002,Achery,49.694,3.397
02004,Agnicourt-et-Séchelles,49.717,3.96
02009,Alaincourt,49.767,3.366
02010,Allemant,49.462,3.454
02014,Amigny-Rouy,49.611,3.303
02015,Ancienville,49.219,3.208
02016,Andelain,49.641,3.37
02017,Anguilcourt-le-Sart,49.694,3.428
02018,Anizy-le-Grand,49.504,3.431
02019,Annois,49.721,3.176
02020,Any-Martin-Rieux,49.882,4.224
02021,Archon,49.744,4.119
02025,Artemps,49.762,3.197
02031,Aubenton,49.825,4.191
02032,Aubigny-aux-Kaisnes,49.772,3.119
02035,Audigny,49.866,3.631
02038,Les Autels,49.761,4.224
02039,Autremencourt,49.705,3.794
02041,Autreville,49.586,3.236
02049,Barisis-aux-Bois,49.578,3.328
02050,Barzy-en-Thiérache,50.04,3.749
02052,Bassoles-Aulers,49.533,3.385
02055,Beaumé,49.821,4.152
02056,Beaumont-en-Beine,49.688,3.131
02059,Beautor,49.648,3.338
02060,Beauvois-en-Vermandois,49.834,3.103
02066,Benay,49.755,3.309
02067,Bergues-sur-Sambre,50.03,3.711
02068,Berlancourt,49.781,3.757
02069,Berlise,49.662,4.113
02074,Bertaucourt-Epourdon,49.628,3.398
02075,Berthenicourt,49.779,3.372
02078,Besmé,49.534,3.165
02079,Besmont,49.823,4.118
02081,Béthancourt-en-Vaux,49.629,3.141
02084,Bézu-le-Guéry,49.01,3.228
02086,Bichancourt,49.579,3.213
02090,Billy-sur-Ourcq,49.222,3.299
02096,Bois-lès-Pargny,49.737,3.654
02101,Bosmont-sur-Serre,49.739,3.867
02103,Boué,50.012,3.714
02107,Bourguignon-sous-Coucy,49.543,3.154
02111,Brancourt-en-Laonnois,49.518,3.413
02117,Bray-Saint-Christophe,49.775,3.141
02122,Brie,49.597,3.473
02123,Brissay-Choigny,49.723,3.396
02124,Brissy-Hamégicourt,49.743,3.4
02125,Brumetz,49.11,3.153
02126,Brunehamel,49.772,4.186
02130,Bucilly,49.866,4.093
02134,Buire,49.907,4.057
02135,Buironfosse,49.958,3.838
02139,Caillouël-Crépigny,49.618,3.122
02141,La Capelle,49.973,3.914
02142,Castres,49.801,3.253
02145,Caumont,49.637,3.174
02149,Cerizy,49.767,3.333
02155,Chaillevois,49.508,3.522
02159,Champs,49.544,3.262
02160,Chaourse,49.701,3.986
02162,La Chapelle-sur-Chézy,48.949,3.377
02163,Charly-sur-Marne,48.99,3.294
02165,Charmes,49.651,3.385
02169,Châtillon-lès-Sons,49.762,3.703
02170,Châtillon-sur-Oise,49.794,3.416
02173,Chauny,49.62,3.219
02174,Chavignon,49.479,3.519
02181,Chéry-lès-Rozoy,49.722,4.101
02182,Chevennes,49.818,3.737
02185,Chézy-en-Orxois,49.127,3.168
02188,Chigny,49.93,3.775
02192,Chouy,49.217,3.247
02194,Cilly,49.749,3.84
02197,Clairfontaine,49.974,3.987
02199,Clastres,49.749,3.23
02204,Coingt,49.792,4.096
02206,Colonfay,49.858,3.711
02207,Commenchon,49.642,3.151
02212,Condren,49.637,3.277
02214,Contescourt,49.792,3.234
02216,Corcy,49.255,3.197
02217,Coucy-le-Château-Auffrique,49.516,3.316
02219,Coucy-la-Ville,49.541,3.344
02221,Coupru,49.031,3.274
02222,Courbes,49.682,3.46
02232,Coyolles,49.213,3.013
02242,Crouttes-sur-Marne,48.979,3.248
02244,Crupilly,49.931,3.752
02246,Cugny,49.703,3.154
02248,Cuirieux,49.683,3.82
02251,Cuiry-lès-Iviers,49.766,4.104
02257,Dallon,49.824,3.23
02258,Dammard,49.147,3.177
02259,Dampleux,49.241,3.144
02260,Danizy,49.667,3.401
02261,Dercy,49.71,3.685
02262,Deuillet,49.629,3.36
02265,Dohis,49.767,4.142
02268,Domptin,49.016,3.273
02269,Dorengt,49.965,3.703
02270,Douchy,49.794,3.13
02273,Dury,49.751,3.134
02274,Ébouleau,49.678,3.883
02275,Effry,49.919,3.988
02278,Éparcy,49.886,4.07
02283,Erlon,49.735,3.705
02284,Erloy,49.92,3.838
02286,Esquéhéries,49.982,3.753
02287,Essigny-le-Grand,49.774,3.272
02298,Étreux,50.0,3.659
02302,Faverolles,49.227,3.178
02304,La Fère,49.666,3.369
02307,La Ferté-Milon,49.176,3.142
02308,Fesmy-le-Sart,50.048,3.698
02312,La Flamengrie,50.0,3.925
02313,Flavigny-le-Grand-et-Beaurain,49.887,3.674
02315,Flavy-le-Martel,49.705,3.194
02316,Fleury,49.265,3.16
02317,Fluquières,49.8,3.157
02318,Folembray,49.549,3.293
02320,Fontaine-lès-Clercs,49.808,3.212
02324,Fontenelle,50.031,3.846
02327,Foreste,49.806,3.096
02329,Fourdrain,49.619,3.46
02333,Fresnes-sous-Coucy,49.555,3.37
02335,Fressancourt,49.628,3.427
02336,Frières-Faillouël,49.684,3.237
02337,Froidestrées,49.943,3.91
02338,Froidmont-Cohartille,49.682,3.721
02340,Gauchy,49.824,3.286
02342,Gergny,49.933,3.93
02343,Germaine,49.812,3.119
02345,Gibercourt,49.739,3.283
02350,Goudelancourt-lès-Pierrepont,49.678,3.852
02354,Grandrieux,49.729,4.188
02359,Grugies,49.81,3.275
02361,Guise,49.896,3.625
02362,Guivry,49.652,3.121
02363,Guny,49.512,3.261
02366,Hannapes,49.977,3.614
02367,Happencourt,49.783,3.183
02368,Haramont,49.287,3.032
02375,Hautevesnes,49.109,3.236
02376,Hauteville,49.888,3.524
02378,La Hérie,49.884,4.044
02379,Le Hérie-la-Viéville,49.822,3.654
02380,Hinacourt,49.746,3.294
02381,Hirson,49.943,4.105
02385,Housset,49.796,3.695
02386,Iron,49.95,3.665
02387,Itancourt,49.803,3.349
02388,Iviers,49.786,4.136
02397,Jussy,49.717,3.236
02402,Lanchy,49.829,3.074
02403,Landifay-et-Bertaignemont,49.826,3.604
02405,Landouzy-la-Ville,49.856,4.05
02410,Largny-sur-Automne,49.261,3.054
02414,Lavaqueresse,49.946,3.717
02418,Lerzy,49.95,3.881
02419,Leschelle,49.961,3.777
02422,Lesquielles-Saint-Germain,49.932,3.628
02425,Leuze,49.858,4.17
02431,Liez,49.692,3.3
02433,Lislet,49.676,4.021
02435,Logny-lès-Aubenton,49.833,4.22
02438,Longpont,49.284,3.221
02441,Louâtre,49.253,3.242
02444,Lugny,49.782,3.812
02445,Luzoir,49.927,3.96
02446,Ly-Fontaine,49.732,3.311
02448,Mâchecourt,49.652,3.838
02449,Macogny,49.159,3.218
02450,Macquigny,49.873,3.571
02455,Malzy,49.921,3.73
02456,Manicamp,49.565,3.18
02460,Marcy-sous-Marle,49.746,3.734
02461,Marest-Dampcourt,49.594,3.146
02463,Marfontaine,49.808,3.764
02465,Marigny-en-Orxois,49.053,3.223
02466,Marizy-Sainte-Geneviève,49.182,3.198
02467,Marizy-Saint-Mard,49.182,3.228
02468,Marle,49.745,3.765
02469,Marly-Gomont,49.891,3.785
02470,Martigny,49.867,4.134
02473,Mayot,49.709,3.398
02474,Mennessis,49.692,3.275
02478,Merlieux-et-Fouquerolles,49.514,3.499
02481,Mesnil-Saint-Laurent,49.829,3.364
02483,Mézières-sur-Oise,49.792,3.387
02491,Monceau-le-Neuf-et-Faucouzy,49.785,3.631
02492,Monceau-lès-Leups,49.662,3.486
02494,Monceau-sur-Oise,49.91,3.7
02495,Mondrepuis,49.964,4.051
02496,Monnes,49.146,3.229
02502,Montcornet,49.689,4.029
02503,Mont-d'Origny,49.852,3.527
02504,Montescourt-Lizerolles,49.736,3.262
02506,Montgobert,49.29,3.174
02513,Montigny-le-Franc,49.688,3.918
02516,Montigny-sous-Marle,49.741,3.804
02519,Montloué,49.668,4.063
02522,Mont-Saint-Jean,49.793,4.211
02529,Mortiers,49.694,3.664
02532,Moÿ-de-l'Aisne,49.75,3.351
02542,Neuflieux,49.616,3.16
02543,Neuilly-Saint-Front,49.163,3.264
02544,Neuve-Maison,49.929,4.041
02545,La Neuville-Bosmont,49.714,3.834
02546,La Neuville-en-Beine,49.676,3.156
02547,La Neuville-Housset,49.788,3.732
02548,La Neuville-lès-Dorengt,49.983,3.686
02549,Neuville-Saint-Amand,49.821,3.334
02552,Neuvillette,49.855,3.468
02555,Nogent-l'Artaud,48.943,3.333
02556,Noircourt,49.669,4.094
02557,Noroy-sur-Ourcq,49.204,3.207
02558,Le Nouvion-en-Thiérache,50.009,3.809
02559,Nouvion-et-Catillon,49.708,3.494
02560,Nouvion-le-Comte,49.708,3.461
02563,Noyales,49.908,3.538
02566,Ognes,49.614,3.191
02567,Ohis,49.918,4.012
02568,Oigny-en-Valois,49.214,3.13
02569,Oisy,50.023,3.653
02570,Ollezy,49.73,3.146
02574,Origny-en-Thiérache,49.886,4.011
02575,Origny-Sainte-Benoite,49.827,3.529
02584,Papleux,50.017,3.88
02586,Parfondeval,49.744,4.162
02591,Pargny-les-Bois,49.732,3.618
02592,Parpeville,49.794,3.564
02594,Passy-en-Valois,49.162,3.184
02596,Pavant,48.953,3.284
02599,Pierremande,49.567,3.258
02600,Pierrepont,49.648,3.788
02602,Pinon,49.488,3.462
02604,Pithon,49.756,3.104
02605,Pleine-Selve,49.797,3.526
02616,Pont-Saint-Mard,49.494,3.279
02619,Prémontré,49.549,3.418
02622,Priez,49.131,3.263
02624,Proisy,49.891,3.752
02625,Proix,49.902,3.574
02628,Puiseux-en-Retz,49.293,3.134
02629,Puisieux-et-Clanlieu,49.847,3.664
02631,Quierzy,49.564,3.146
02632,Quincy-Basse,49.509,3.385
02634,Raillimont,49.702,4.159
02636,Regny,49.834,3.421
02638,Remies,49.679,3.525
02639,Remigny,49.714,3.295
02640,Renansart,49.734,3.453
02642,Résigny,49.741,4.21
02647,Ribeauville,50.037,3.588
02648,Ribemont,49.788,3.47
02650,Rocquigny,50.019,3.973
02651,Rogécourt,49.649,3.416
02652,Rogny,49.767,3.821
02653,Romeny-sur-Marne,48.985,3.334
02654,Romery,49.888,3.733
02657,Rougeries,49.806,3.787
02658,Roupy,49.812,3.182
02660,Rouvroy-sur-Serre,49.715,4.176
02662,Rozet-Saint-Albin,49.198,3.297
02666,Rozoy-sur-Serre,49.706,4.131
02668,Sains-Richaumont,49.828,3.705
02671,Saint-Aubin,49.51,3.188
02674,Saint-Clément,49.775,4.073
02679,Saint-Gengoulph,49.119,3.215
02680,Saint-Gobain,49.595,3.394
02683,Saint-Martin-Rivière,50.044,3.555
02684,Saint-Michel,49.926,4.153
02685,Saint-Nicolas-aux-Bois,49.597,3.439
02686,Saint-Paul-aux-Bois,49.544,3.203
02689,Saint-Pierremont,49.714,3.876
02693,Saint-Rémy-Blanzy,49.246,3.308
02694,Saint-Simon,49.746,3.183
02701,Saulchery,48.976,3.313
02704,Selens,49.494,3.206
02707,Septvaux,49.57,3.387
02710,Seraucourt-le-Grand,49.78,3.218
02716,Servais,49.619,3.342
02717,Séry-lès-Mézières,49.765,3.423
02718,Silly-la-Poterie,49.196,3.15
02719,Sinceny,49.591,3.269
02721,Sissy,49.811,3.421
02723,Soize,49.698,4.086
02725,Sommeron,49.957,3.946
02726,Sommette-Eaucourt,49.727,3.12
02727,Sons-et-Ronchères,49.769,3.668
02729,Soucy,49.321,3.123
02731,Le Sourd,49.866,3.752
02732,Surfontaine,49.747,3.48
02734,Taillefontaine,49.31,3.05
02737,Tavaux-et-Pontséricourt,49.73,3.919
02738,Tergnier,49.657,3.299
02741,Thenelles,49.832,3.459
02742,Thiernu,49.765,3.78
02745,Toulis-et-Attencourt,49.697,3.75
02746,Travecy,49.686,3.345
02749,Troësnes,49.198,3.177
02750,Trosly-Loire,49.518,3.232
02752,Tugny-et-Pont,49.77,3.161
02753,Tupigny,49.971,3.594
02754,Ugny-le-Gay,49.661,3.157
02756,Urvillers,49.79,3.316
02757,Vadencourt,49.923,3.574
02766,Vaudesson,49.475,3.487
02768,Vauxaillon,49.477,3.408
02775,Vendeuil,49.72,3.345
02779,Vénérolles,49.99,3.63
02783,Grand-Verly,49.943,3.581
02786,Verneuil-sous-Coucy,49.545,3.319
02788,Versigny,49.658,3.443
02790,Vesles-et-Caumont,49.675,3.79
02792,Veuilly-la-Poterie,49.083,3.219
02796,Vichel-Nanteuil,49.182,3.299
02807,Villequier-Aumont,49.661,3.198
02810,Villers-Cotterêts,49.239,3.096
02812,Villers-Hélon,49.265,3.268
02813,Villers-le-Sec,49.771,3.505
02814,Villers-lès-Guise,49.926,3.682
02815,Villers-Saint-Christophe,49.78,3.091
02818,Villiers-Saint-Denis,48.998,3.261
02820,Viry-Noureuil,49.638,3.248
02822,Vivières,49.305,3.092
02823,Voharies,49.787,3.792
02827,Voyenne,49.716,3.738
02830,Wassigny,50.018,3.599
02831,Watigny,49.916,4.2
02832,Wiège-Faty,49.883,3.713
02833,Wimy,49.948,3.997
02834,Wissignicourt,49.53,3.441
03003,Ainay-le-Château,46.716,2.721
03004,Andelaroche,46.25,3.746
03005,Archignat,46.367,2.41
03010,Audes,46.461,2.559
03017,Barrais-Bussolles,46.284,3.698
03020,Beaune-d'Allier,46.273,2.891
03024,Bert,46.328,3.702
03028,Billezois,46.21,3.577
03031,Bizeneuille,46.402,2.731
03032,Blomard,46.288,2.963
03034,Boucé,46.32,3.492
03037,Braize,46.659,2.654
03041,Le Brethon,46.584,2.715
03042,Le Breuil,46.177,3.669
03046,Buxières-les-Mines,46.47,2.955
03048,Cérilly,46.626,2.809
03051,Chambérat,46.414,2.426
03055,La Chapelaude,46.428,2.504
03058,Chappes,46.383,2.944
03063,Chassenard,46.442,3.973
03064,Château-sur-Allier,46.782,2.987
03068,Châtelus,46.198,3.725
03070,Chavenon,46.422,2.952
03071,Chavroches,46.354,3.597
03072,Chazemais,46.487,2.519
03079,Cindré,46.323,3.551
03084,Cosne-d'Allier,46.483,2.823
03086,Coulanges,46.475,3.863
03087,Couleuvre,46.674,2.897
03088,Courçais,46.464,2.449
03097,Deneuille-les-Mines,46.378,2.776
03099,Deux-Chaises,46.375,3.041
03101,Domérat,46.368,2.544
03103,Le Donjon,46.345,3.8
03105,Droiturier,46.227,3.705
03108,Échassières,46.196,2.946
03111,Estivareilles,46.425,2.625
03114,La Ferté-Hauterive,46.396,3.336
03120,Garnat-sur-Engièvre,46.635,3.668
03124,Gouise,46.411,3.438
03127,Hérisson,46.52,2.71
03128,Huriel,46.377,2.482
03130,Isle-et-Bardais,46.682,2.777
03132,Jaligny-sur-Besbre,46.377,3.59
03136,Lamaids,46.304,2.438
03137,Langy,46.273,3.462
03138,Lapalisse,46.265,3.638
03142,Lenax,46.304,3.831
03143,Lételon,46.656,2.595
03147,Loddes,46.295,3.761
03150,Louroux-Bourbonnais,46.534,2.838
03152,Louroux-de-Bouble,46.23,2.973
03154,Luneau,46.366,3.953
03155,Lurcy-Lévis,46.735,2.918
03158,Haut-Bocage,46.493,2.658
03168,Meaulne-Vitray,46.596,2.62
03172,Mesples,46.427,2.364
03173,Molinet,46.464,3.926
03178,Montaiguët-en-Forez,46.267,3.822
03179,Montaigu-le-Blin,46.291,3.516
03181,Montcombroux-les-Mines,46.361,3.728
03183,Le Montet,46.406,3.054
03186,Montmarault,46.32,2.952
03187,Montoldre,46.338,3.451
03191,Murat,46.411,2.904
03192,Nades,46.154,2.969
03193,Nassigny,46.498,2.594
03198,Neure,46.745,2.98
03203,Paray-le-Frésil,46.66,3.604
03204,Paray-sous-Briailles,46.29,3.37
03205,Périgny,46.247,3.56
03208,Le Pin,46.422,3.89
03210,Pouzy-Mésangy,46.705,3.007
03212,Quinssaines,46.309,2.494
03213,Reugny,46.458,2.613
03214,Rocles,46.444,3.037
03215,Rongères,46.298,3.452
03219,Saint-Bonnet-de-Four,46.315,2.905
03221,Saint-Bonnet-Tronçais,46.67,2.696
03222,Saint-Caprais,46.545,2.74
03223,Saint-Christophe-en-Bourbonnais,46.166,3.578
03225,Saint-Désiré,46.507,2.45
03226,Saint-Didier-en-Donjon,46.383,3.861
03228,Saint-Éloy-d'Allier,46.497,2.363
03234,Saint-Gérand-de-Vaux,46.384,3.407
03235,Saint-Gérand-le-Puy,46.264,3.512
03239,Saint-Léger-sur-Vouzance,46.409,3.937
03242,Saint-Loup,46.355,3.376
03243,Saint-Marcel-en-Murat,46.322,3.005
03245,Saint-Martin-des-Lais,46.674,3.657
03246,Saint-Martinien,46.333,2.443
03250,Saint-Pierre-Laval,46.196,3.77
03256,Saint-Priest-en-Murat,46.356,2.903
03257,Saint-Prix,46.225,3.649
03260,Saint-Sornin,46.412,3.004
03262,Saint-Victor,46.388,2.609
03263,Saint-Voir,46.41,3.506
03269,Sauvagny,46.434,2.8
03270,Sazeret,46.347,2.97
03272,Servilly,46.28,3.59
03274,Sorbier,46.361,3.658
03282,Theneuille,46.588,2.88
03285,Tortezais,46.446,2.873
03289,Treteau,46.368,3.52
03291,Trézelles,46.32,3.597
03292,Tronget,46.419,3.089
03293,Urçay,46.634,2.614
03296,Valigny,46.716,2.82
03297,Vallon-en-Sully,46.54,2.617
03298,Varennes-sur-Allier,46.317,3.4
03299,Varennes-sur-Tèche,46.318,3.637
03301,Vaux,46.421,2.574
03303,Venas,46.473,2.767
03308,Vernusse,46.26,2.972
03312,Vieure,46.5,2.882
03313,Le Vilhain,46.562,2.793
03315,Villefranche-d'Allier,46.396,2.841
03317,Viplaix,46.462,2.37
03319,Voussac,46.326,3.073
04001,Aiglun,44.064,6.138
04004,Allemagne-en-Provence,43.789,6.031
04005,Allons,43.98,6.59
04006,Allos,44.262,6.627
04007,Angles,43.944,6.552
04008,Annot,43.962,6.664
04009,Archail,44.111,6.331
04012,Aubenas-les-Alpes,43.934,5.677
04013,Aubignosc,44.118,5.957
04016,Authon,44.249,6.151
04017,Auzet,44.305,6.311
04018,Banon,44.027,5.65
04020,Barles,44.273,6.253
04021,Barras,44.101,6.098
04022,Barrême,43.946,6.378
04023,Bayons,44.325,6.173
04024,Beaujeu,44.219,6.371
04025,Beauvezer,44.144,6.598
04027,Bevons,44.178,5.879
04028,Beynes,43.984,6.24
04030,Blieux,43.875,6.363
04031,Bras-d'Asse,43.926,6.126
04032,Braux,43.993,6.699
04034,La Brillanne,43.932,5.884
04035,Brunet,43.886,6.033
04036,Le Brusquet,44.168,6.304
04037,Le Caire,44.374,6.069
04039,Castellane,43.845,6.49
04040,Le Castellard-Mélan,44.202,6.132
04041,Le Castellet,43.92,5.979
04042,Castellet-lès-Sausses,44.04,6.734
04043,Val-de-Chalvagne,43.905,6.766
04046,Le Chaffaut-Saint-Jurson,44.023,6.141
04047,Champtercier,44.097,6.145
04050,Châteaufort,44.275,6.03
04051,Châteauneuf-Miravail,44.153,5.718
04053,Châteauneuf-Val-Saint-Donat,44.096,5.93
04054,Châteauredon,44.026,6.224
04055,Chaudon-Norante,43.992,6.317
04057,Clamensane,44.328,6.078
04058,Claret,44.374,5.965
04059,Clumanc,44.022,6.378
04061,Colmars,44.172,6.662
04065,Cruis,44.083,5.838
04067,Curel,44.177,5.673
04068,Dauphin,43.893,5.776
04069,Demandolx,43.87,6.574
04070,Digne-les-Bains,44.091,6.236
04072,Draix,44.13,6.372
04074,Entrages,44.038,6.269
04075,Entrepierres,44.196,6.022
04076,Entrevaux,43.95,6.802
04077,Entrevennes,43.938,6.034
04084,Estoublon,43.943,6.194
04085,Faucon-du-Caire,44.396,6.104
04087,Fontienne,44.007,5.794
04088,Forcalquier,43.96,5.788
04090,Le Fugeret,44.014,6.666
04091,Ganagobie,44.003,5.908
04092,La Garde,43.83,6.572
04095,L'Hospitalet,44.109,5.707
04097,La Javie,44.197,6.322
04099,Lambruisse,44.045,6.445
04101,Lardiers,44.085,5.727
04104,Limans,43.987,5.724
04106,Lurs,43.97,5.88
04107,Majastres,43.898,6.284
04110,Mallemoisson,44.042,6.118
04111,Mane,43.939,5.742
04113,Marcoux,44.128,6.28
04115,Méailles,44.04,6.645
04118,Melve,44.356,5.993
04121,Mézel,43.998,6.179
04122,Mirabeau,44.056,6.08
04123,Mison,44.262,5.866
04124,Montagnac-Montpezat,43.766,6.094
04130,Montlaux,44.041,5.85
04132,Montsalier,44.03,5.596
04133,Moriez,43.964,6.462
04134,La Motte-du-Caire,44.341,6.03
04135,Moustiers-Sainte-Marie,43.838,6.228
04136,La Mure-Argens,44.017,6.532
04137,Nibles,44.289,6.009
04138,Niozelles,43.932,5.847
04139,Noyers-sur-Jabron,44.169,5.81
04140,Les Omergues,44.153,5.589
04141,Ongles,44.031,5.725
04143,Oraison,43.911,5.925
04144,La Palud-sur-Verdon,43.797,6.327
04145,Peipin,44.141,5.944
04148,Peyroules,43.817,6.643
04151,Pierrerue,43.962,5.836
04155,Prads-Haute-Bléone,44.213,6.464
04156,Puimichel,43.979,6.025
04157,Puimoisson,43.871,6.122
04158,Quinson,43.708,6.023
04159,Redortiers,44.098,5.614
04162,Revest-des-Brousses,43.976,5.675
04163,Revest-du-Bion,44.094,5.54
04164,Revest-Saint-Martin,44.02,5.823
04166,Riez,43.828,6.082
04167,La Robine-sur-Galabre,44.193,6.23
04169,La Rochegiron,44.109,5.664
04170,La Rochette,43.912,6.881
04171,Rougon,43.797,6.393
04172,Roumoules,43.821,6.149
04173,Saint-André-les-Alpes,43.971,6.502
04174,Saint-Benoît,43.963,6.724
04176,Sainte-Croix-du-Verdon,43.764,6.152
04177,Hautes-Duyes,44.195,6.174
04178,Saint-Étienne-les-Orgues,44.067,5.78
04179,Saint-Geniez,44.233,6.063
04180,Saint-Jacques,43.977,6.371
04181,Saint-Jeannet,43.979,6.118
04182,Saint-Julien-d'Asse,43.927,6.078
04183,Saint-Julien-du-Verdon,43.91,6.546
04184,Saint-Jurs,43.899,6.193
04186,Saint-Laurent-du-Verdon,43.722,6.069
04187,Saint-Lions,43.979,6.406
04188,Saint-Maime,43.901,5.802
04192,Saint-Michel-l'Observatoire,43.91,5.72
04194,Saint-Pierre,43.909,6.922
04199,Saint-Vincent-sur-Jabron,44.17,5.748
04200,Salignac,44.157,5.988
04201,Saumane,44.081,5.682
04202,Sausses,44.012,6.779
04204,Senez,43.922,6.369
04206,Sigonce,44.004,5.857
04207,Sigoyer,44.322,5.961
04208,Simiane-la-Rotonde,43.984,5.562
04209,Sisteron,44.2,5.931
04210,Soleilhas,43.86,6.649
04214,Tartonne,44.078,6.384
04216,Thèze,44.33,5.925
04217,Thoard,44.147,6.124
04218,Thorame-Basse,44.107,6.489
04219,Thorame-Haute,44.086,6.601
04224,Ubraye,43.907,6.687
04227,Vachères,43.947,5.635
04228,Valavoire,44.28,6.076
04229,Valbelle,44.137,5.876
04230,Valensole,43.838,5.942
04231,Valernes,44.252,5.97
04233,Vaumeilh,44.29,5.956
04235,Verdaches,44.268,6.343
04236,Vergons,43.915,6.605
04237,Le Vernet,44.277,6.403
04240,Villars-Colmars,44.198,6.569
04242,Villeneuve,43.896,5.857
05001,Abriès-Ristolas,44.816,6.942
05003,Aiguilles,44.779,6.875
05006,L'Argentière-la-Bessée,44.782,6.472
05007,Arvieux,44.764,6.722
05008,Aspremont,44.493,5.72
05010,Aspres-sur-Buëch,44.562,5.772
05013,Barcillonnette,44.43,5.906
05014,Barret-sur-Méouge,44.265,5.729
05016,La Bâtie-Montsaléon,44.456,5.749
05019,La Beaume,44.548,5.654
05021,Le Bersac,44.406,5.753
05024,Valdoule,44.468,5.504
05026,Ceillac,44.653,6.804
05028,Chabestan,44.478,5.783
05031,Champcella,44.718,6.531
05033,Chanousse,44.365,5.66
05035,Châteauneuf-d'Oze,44.505,5.898
05038,Château-Ville-Vieille,44.768,6.8
05047,Éourres,44.214,5.729
05048,L'Épine,44.425,5.611
05049,Esparron,44.463,5.893
05051,Étoile-Saint-Cyrice,44.321,5.644
05052,Eygliers,44.692,6.667
05053,Garde-Colombe,44.357,5.783
05055,La Faurie,44.568,5.74
05058,Freissinières,44.736,6.459
05060,Furmeyer,44.537,5.876
05063,La Grave,45.06,6.284
05065,Guillestre,44.668,6.701
05066,La Haute-Beaume,44.569,5.628
05070,Laragne-Montéglin,44.334,5.816
05073,Lazer,44.352,5.85
05076,Méreuil,44.384,5.713
05077,Molines-en-Queyras,44.717,6.892
05078,Monêtier-Allemont,44.393,5.934
05080,Montbrand,44.592,5.668
05081,Montclus,44.415,5.67
05082,Mont-Dauphin,44.669,6.625
05086,Montjay,44.366,5.615
05087,Montmaur,44.59,5.886
05089,Montrond,44.387,5.746
05091,Moydans,44.41,5.509
05094,Nossage-et-Bénévent,44.31,5.754
05097,Orpierre,44.315,5.706
05099,Oze,44.506,5.799
05101,Vallouise-Pelvoux,44.9,6.436
05102,La Piarre,44.478,5.648
05103,Le Poët,44.279,5.901
05110,Puy-Saint-Vincent,44.814,6.465
05116,Réotier,44.681,6.565
05117,Ribeyret,44.411,5.558
05118,Val Buëch-Méouge,44.221,5.843
05119,Risoul,44.624,6.623
05122,La Roche-de-Rame,44.766,6.616
05123,La Roche-des-Arnauds,44.584,5.96
05126,Rosans,44.4,5.462
05129,Saint-André-de-Rosans,44.365,5.521
05131,Saint-Auban-d'Oze,44.488,5.848
05134,Saint-Clément-sur-Durance,44.648,6.561
05135,Sainte-Colombe,44.289,5.668
05136,Saint-Crépin,44.724,6.636
05146,Saint-Julien-en-Beauchêne,44.626,5.72
05151,Saint-Martin-de-Queyrières,44.838,6.583
05154,Saint-Pierre-d'Argençon,44.52,5.69
05155,Saint-Pierre-Avez,44.248,5.768
05157,Saint-Véran,44.684,6.891
05158,Le Saix,44.464,5.834
05159,Saléon,44.32,5.775
05160,Salérans,44.242,5.701
05165,Savournon,44.424,5.799
05166,Serres,44.421,5.716
05167,Sigottier,44.458,5.685
05169,Sorbiers,44.362,5.573
05172,Trescléoux,44.355,5.718
05173,Upaix,44.32,5.883
05177,Vars,44.592,6.714
05178,Ventavon,44.386,5.888
05179,Veynes,44.557,5.823
05180,Les Vigneaux,44.821,6.537
05181,Villar-d'Arêne,45.0,6.364
05184,Vitrolles,44.425,5.948
06001,Aiglun,43.852,6.935
06002,Amirat,43.896,6.813
06003,Andon,43.777,6.823
06005,Ascros,43.919,7.016
06006,Aspremont,43.775,7.245
06007,Auribeau-sur-Siagne,43.612,6.912
06008,Auvare,44.007,6.915
06009,Bairols,43.987,7.12
06013,Belvédère,44.056,7.374
06014,Bendejun,43.83,7.284
06015,Berre-les-Alpes,43.838,7.331
06016,Beuil,44.108,6.972
06017,Bézaudun-les-Alpes,43.804,7.094
06019,Blausasc,43.794,7.36
06020,La Bollène-Vésubie,43.995,7.372
06021,Bonson,43.862,7.183
06022,Bouyon,43.825,7.126
06023,Breil-sur-Roya,43.94,7.504
06024,Briançonnet,43.865,6.745
06025,Le Broc,43.815,7.159
06028,Caille,43.769,6.757
06033,Carros,43.785,7.184
06034,Castagniers,43.792,7.228
06035,Castellar,43.822,7.499
06036,Castillon,43.836,7.465
06037,Caussols,43.737,6.902
06039,Châteauneuf-Villevieille,43.8,7.294
06040,Châteauneuf-d'Entraunes,44.164,6.835
06041,Cipières,43.77,6.928
06042,Clans,44.005,7.179
06043,Coaraze,43.866,7.299
06045,Collongues,43.894,6.864
06046,Colomars,43.759,7.223
06048,Contes,43.809,7.324
06051,La Croix-sur-Roudoule,44.0,6.87
06053,Daluis,44.039,6.8
06055,Duranus,43.894,7.28
06056,Entraunes,44.215,6.763
06057,L'Escarène,43.834,7.366
06058,Escragnolles,43.729,6.783
06061,Les Ferres,43.842,7.093
06062,Fontan,44.022,7.544
06063,Gars,43.86,6.817
06064,Gattières,43.765,7.169
06065,La Gaude,43.721,7.16
06066,Gilette,43.848,7.161
06070,Gréolières,43.807,6.932
06071,Guillaumes,44.088,6.875
06072,Ilonse,44.035,7.09
06073,Isola,44.187,7.075
06074,Lantosque,43.971,7.305
06075,Levens,43.85,7.24
06076,Lieuche,44.002,7.032
06077,Lucéram,43.901,7.353
06078,Malaussène,43.915,7.141
06080,Marie,44.035,7.157
06081,Le Mas,43.837,6.859
06082,Massoins,43.948,7.124
06083,Menton,43.791,7.494
06086,Moulinet,43.954,7.414
06087,Les Mujouls,43.872,6.859
06090,Pégomas,43.587,6.922
06091,Peille,43.806,7.411
06093,La Penne,43.925,6.942
06094,Péone,44.13,6.921
06096,Pierlas,44.035,7.017
06097,Pierrefeu,43.885,7.071
06098,Puget-Rostang,43.987,6.937
06099,Puget-Théniers,43.952,6.906
06100,Revest-les-Roches,43.883,7.168
06101,Rigaud,43.993,6.975
06102,Rimplas,44.103,7.145
06103,Roquebillière,44.027,7.293
06108,La Roquette-sur-Siagne,43.585,6.95
06109,La Roquette-sur-Var,43.833,7.205
06110,Roubion,44.108,7.028
06111,Roure,44.119,7.067
06113,Sainte-Agnès,43.806,7.461
06115,Saint-Antonin,43.908,6.977
06116,Saint-Auban,43.831,6.74
06117,Saint-Blaise,43.813,7.23
06118,Saint-Cézaire-sur-Siagne,43.659,6.803
06119,Saint-Dalmas-le-Selvage,44.29,6.841
06120,Saint-Étienne-de-Tinée,44.249,6.924
06124,Saint-Léger,44.003,6.823
06125,Saint-Martin-d'Entraunes,44.149,6.746
06126,Saint-Martin-du-Var,43.817,7.199
06127,Saint-Martin-Vésubie,44.102,7.302
06129,Saint-Sauveur-sur-Tinée,44.121,7.118
06130,Saint-Vallier-de-Thiey,43.697,6.851
06131,Sallagriffon,43.881,6.914
06132,Saorge,43.994,7.538
06133,Sauze,44.085,6.801
06134,Séranon,43.766,6.69
06135,Sigale,43.876,6.966
06136,Sospel,43.884,7.448
06139,Thiéry,43.974,7.042
06141,Toudon,43.892,7.108
06142,Touët-de-l'Escarène,43.852,7.378
06143,Touët-sur-Var,43.943,7.014
06144,La Tour,43.963,7.2
06145,Tourette-du-Château,43.878,7.137
06146,Tournefort,43.941,7.158
06147,Tourrette-Levens,43.786,7.273
06151,Utelle,43.927,7.239
06153,Valdeblore,44.113,7.196
06154,Valderoure,43.794,6.71
06156,Venanson,44.041,7.239
06158,Villars-sur-Var,43.952,7.08
06160,Villeneuve-d'Entraunes,44.122,6.782
06162,La Brigue,44.072,7.652
06163,Tende,44.1,7.54
07001,Accons,44.888,4.392
07002,Ailhon,44.599,4.333
07003,Aizac,44.72,4.331
07004,Ajoux,44.755,4.486
07006,Albon-d'Ardèche,44.815,4.425
07008,Alissas,44.707,4.624
07011,Vallées-d'Antraigues-Asperjoc,44.739,4.355
07012,Arcens,44.9,4.318
07013,Ardoix,45.191,4.743
07014,Arlebosc,45.04,4.63
07015,Arras-sur-Rhône,45.144,4.804
07018,Astet,44.685,4.027
07019,Aubenas,44.61,4.396
07023,Balazuc,44.508,4.372
07025,Barnas,44.669,4.159
07026,Le Béage,44.856,4.13
07029,Beaumont,44.543,4.172
07030,Beauvène,44.87,4.512
07032,Berzème,44.655,4.572
07033,Bessas,44.338,4.298
07037,Borée,44.895,4.227
07038,Borne,44.617,4.042
07039,Bozas,45.059,4.648
07040,Boucieu-le-Roi,45.029,4.688
07045,Burzet,44.748,4.234
07047,Cellier-du-Luc,44.674,3.902
07049,Le Chambon,44.83,4.299
07054,Chanéac,44.93,4.307
07058,Chassiers,44.566,4.302
07062,Chazeaux,44.595,4.298
07064,Le Cheylard,44.908,4.421
07065,Chirols,44.688,4.295
07066,Chomérac,44.71,4.67
07068,Colombier-le-Jeune,45.012,4.715
07071,Coucouron,44.795,3.962
07072,Coux,44.743,4.623
07073,Le Crestet,45.01,4.639
07074,Creysseilles,44.76,4.53
07075,Cros-de-Géorand,44.8,4.128
07077,Darbres,44.66,4.516
07079,Désaignes,44.992,4.501
07080,Devesset,45.066,4.393
07081,Dompnac,44.563,4.107
07082,Dornas,44.852,4.358
07083,Dunière-sur-Eyrieux,44.834,4.651
07084,Eclassan,45.161,4.749
07085,Empurany,45.026,4.597
07087,Fabras,44.648,4.281
07088,Faugères,44.479,4.14
07091,Fons,44.581,4.347
07092,Freyssenet,44.689,4.547
07093,Genestelle,44.737,4.385
07095,Gilhoc-sur-Ormèze,44.986,4.677
07096,Gluiras,44.846,4.526
07098,Gourdon,44.729,4.455
07103,Saint-Julien-d'Intres,44.986,4.344
07104,Issamoulenc,44.788,4.456
07105,Issanlas,44.767,4.015
07106,Issarlès,44.852,4.053
07107,Jaujac,44.63,4.238
07108,Jaunac,44.92,4.393
07109,Joannas,44.572,4.246
07110,Joyeuse,44.47,4.248
07111,Juvinas,44.704,4.307
07112,Labastide-sur-Bésorgues,44.749,4.298
07114,Labatie-d'Andaure,45.033,4.495
07116,Labégude,44.642,4.357
07117,Lablachère,44.46,4.214
07118,Laboule,44.596,4.17
07119,Le Lac-d'Issarlès,44.823,4.075
07120,Lachamp-Raphaël,44.801,4.288
07121,Lachapelle-Graillouse,44.812,4.019
07122,Lachapelle-sous-Aubenas,44.562,4.359
07123,Lachapelle-sous-Chanéac,44.954,4.319
07124,Lafarre,45.078,4.517
07127,Lalevade-d'Ardèche,44.652,4.314
07129,Lamastre,44.982,4.591
07130,Lanarce,44.729,3.997
07131,Lanas,44.537,4.384
07132,Largentière,44.534,4.301
07134,Laurac-en-Vivarais,44.503,4.288
07136,Laveyrune,44.621,3.919
07137,Lavillatte,44.741,3.952
07138,Lavilledieu,44.582,4.448
07139,Laviolle,44.762,4.334
07141,Lentillères,44.609,4.298
07142,Lespéron,44.734,3.896
07144,Loubaresse,44.591,4.051
07145,Lussas,44.619,4.466
07146,Lyas,44.757,4.597
07149,Marcols-les-Eaux,44.806,4.389
07150,Mariac,44.886,4.353
07151,Mars,45.01,4.329
07153,Mayres,44.665,4.101
07154,Mazan-l'Abbaye,44.725,4.081
07155,Mercuer,44.626,4.351
07156,Meyras,44.678,4.26
07158,Mézilhac,44.807,4.342
07159,Mirabel,44.596,4.496
07161,Montpezat-sous-Bauzon,44.717,4.196
07162,Montréal,44.518,4.294
07165,Belsentes,44.928,4.477
07166,Nozières,45.034,4.546
07167,Les Ollières-sur-Eyrieux,44.81,4.62
07168,Orgnac-l'Aven,44.31,4.424
07169,Ozon,45.163,4.797
07170,Pailharès,45.08,4.557
07173,Péreyres,44.78,4.261
07175,Le Plagnal,44.693,3.951
07176,Planzolles,44.486,4.158
07178,Pont-de-Labeaume,44.666,4.297
07179,Pourchères,44.739,4.504
07182,Prades,44.633,4.31
07184,Pranles,44.781,4.575
07186,Privas,44.722,4.594
07187,Prunet,44.595,4.254
07189,Ribes,44.504,4.198
07190,Rochecolombe,44.518,4.448
07192,Rochepaule,45.086,4.459
07193,Rocher,44.581,4.279
07194,Rochessauve,44.681,4.611
07195,La Rochette,44.922,4.232
07196,Rocles,44.568,4.208
07199,Rosières,44.492,4.262
07200,Le Roux,44.721,4.143
07203,Sagnes-et-Goudoulet,44.801,4.216
07204,Saint-Agrève,45.005,4.413
07206,Saint-Alban-en-Montagne,44.71,3.918
07208,Saint-Andéol-de-Berg,44.53,4.537
07209,Saint-Andéol-de-Fourchades,44.845,4.288
07210,Saint-Andéol-de-Vals,44.693,4.401
07211,Saint-André-de-Cruzières,44.315,4.212
07213,Saint-André-Lachamp,44.508,4.152
07215,Saint-Barthélemy-le-Meil,44.885,4.479
07216,Saint-Barthélemy-Grozon,44.96,4.65
07218,Saint-Basile,44.949,4.562
07219,Saint-Bauzile,44.673,4.669
07220,Saint-Christol,44.87,4.438
07222,Saint-Cierge-sous-le-Cheylard,44.926,4.454
07223,Saint-Cirgues-de-Prades,44.62,4.274
07224,Saint-Cirgues-en-Montagne,44.768,4.089
07226,Saint-Clément,44.95,4.26
07229,Saint-Didier-sous-Aubenas,44.612,4.42
07230,Saint-Étienne-de-Boulogne,44.7,4.473
07231,Saint-Étienne-de-Fontbellon,44.599,4.374
07232,Saint-Étienne-de-Lugdarès,44.647,3.973
07233,Saint-Étienne-de-Serre,44.801,4.524
07235,Sainte-Eulalie,44.829,4.186
07236,Saint-Félicien,45.077,4.61
07238,Saint-Genest-de-Beauzon,44.445,4.187
07239,Saint-Genest-Lachamp,44.844,4.424
07241,Saint-Germain,44.553,4.448
07242,Saint-Gineys-en-Coiron,44.634,4.539
07247,Saint-Jean-le-Centenier,44.587,4.538
07248,Saint-Jean-Roure,44.955,4.419
07249,Saint-Jeure-d'Andaure,45.048,4.464
07250,Saint-Jeure-d'Ay,45.145,4.71
07251,Saint-Joseph-des-Bancs,44.748,4.414
07253,Saint-Julien-du-Gua,44.771,4.44
07254,Saint-Julien-du-Serre,44.66,4.404
07259,Saint-Just-d'Ardèche,44.293,4.624
07260,Saint-Lager-Bressac,44.692,4.716
07262,Saint-Laurent-les-Bains-Laval-d'Aurelle,44.597,3.958
07263,Saint-Laurent-sous-Coiron,44.664,4.485
07267,Saint-Martial,44.863,4.251
07268,Saint-Martin-d'Ardèche,44.307,4.573
07269,Saint-Martin-de-Valamas,44.937,4.371
07272,Saint-Maurice-d'Ardèche,44.519,4.405
07273,Saint-Maurice-d'Ibie,44.484,4.482
07275,Saint-Mélany,44.539,4.129
07276,Saint-Michel-d'Aurance,44.899,4.457
07277,Saint-Michel-de-Boulogne,44.699,4.433
07278,Saint-Michel-de-Chabrillanoux,44.837,4.612
07280,Saint-Paul-le-Jeune,44.332,4.155
07282,Saint-Pierre-de-Colombier,44.71,4.266
07286,Saint-Pierreville,44.819,4.481
07288,Saint-Priest,44.713,4.536
07289,Saint-Privat,44.629,4.423
07290,Saint-Prix,44.947,4.501
07294,Saint-Sauveur-de-Cruzières,44.295,4.258
07295,Saint-Sauveur-de-Montagut,44.82,4.573
07296,Saint-Sernin,44.576,4.382
07298,Saint-Symphorien-sous-Chomérac,44.728,4.706
07301,Saint-Victor,45.099,4.688
07302,Saint-Vincent-de-Barrès,44.657,4.708
07303,Saint-Vincent-de-Durfort,44.792,4.638
07307,Sanilhac,44.533,4.232
07308,Sarras,45.187,4.784
07315,La Souche,44.628,4.162
07317,Talencieux,45.219,4.774
07318,Tauriers,44.552,4.273
07322,Thueyts,44.674,4.212
07325,Ucel,44.643,4.388
07326,Usclades-et-Rieutord,44.771,4.169
07327,Uzer,44.518,4.327
07329,Valgorge,44.594,4.113
07331,Vals-les-Bains,44.667,4.343
07336,Vernon,44.506,4.226
07339,Vesseaux,44.658,4.444
07340,Veyras,44.735,4.556
07341,Villeneuve-de-Berg,44.549,4.503
07343,Vinezac,44.546,4.333
07348,Vogüé,44.558,4.411
08003,Aiglemont,49.79,4.77
08011,Anchamps,49.925,4.664
08015,Antheny,49.844,4.305
08016,Aouste,49.795,4.314
08017,Apremont,49.259,4.968
08028,Aubrives,50.087,4.767
08030,Auge,49.857,4.268
08037,Auvillers-les-Forges,49.866,4.361
08055,Beaumont-en-Argonne,49.528,5.035
08059,Belval-Bois-des-Dames,49.482,5.044
08069,Blanchefosse-et-Bay,49.767,4.252
08073,Bossus-lès-Rumigny,49.84,4.256
08087,Brognon,49.933,4.28
08100,Champlin,49.835,4.326
08106,Charnois,50.102,4.831
08109,Chatel-Chéhéry,49.279,4.952
08122,Chooz,50.091,4.801
08128,Condé-lès-Autry,49.245,4.856
08139,Deville,49.875,4.694
08154,Estrebay,49.825,4.346
08156,Éteignières,49.891,4.403
08161,Exermont,49.294,5.022
08166,Fépin,50.022,4.707
08167,La Férée,49.758,4.304
08169,Flaignes-Havys,49.819,4.399
08172,Fligny,49.884,4.265
08175,Foisches,50.129,4.775
08176,Fossé,49.45,5.005
08182,Le Fréty,49.734,4.262
08183,Fromelennes,50.115,4.863
08185,Fumay,49.973,4.66
08188,Gespunsart,49.818,4.844
08189,Girondelle,49.852,4.386
08190,Givet,50.142,4.835
08199,La Grandville,49.786,4.804
08207,Ham-sur-Meuse,50.09,4.783
08208,Hannappes,49.817,4.234
08214,Hargnies,50.009,4.791
08218,Les Hautes-Rivières,49.909,4.847
08222,Haybes,49.993,4.735
08226,Hierges,50.099,4.734
08242,Laifour,49.902,4.696
08247,Landrichamps,50.079,4.828
08252,Létanne,49.544,5.08
08254,Liart,49.761,4.342
08257,Logny-Bogny,49.776,4.388
08277,Marlemont,49.746,4.381
08282,Maubert-Fontaine,49.882,4.433
08284,Les Mazures,49.897,4.632
08302,Monthermé,49.9,4.748
08304,Montigny-sur-Meuse,50.048,4.711
08316,Neufmanil,49.823,4.807
08318,La Neuville-aux-Joûtes,49.933,4.241
08319,Neuville-lez-Beaulieu,49.906,4.353
08326,Nouart,49.451,5.055
08328,Nouzonville,49.82,4.754
08344,Prez,49.802,4.361
08353,Rancennes,50.121,4.822
08360,Renneville,49.651,4.136
08363,Revin,49.934,4.692
08373,Rumigny,49.805,4.271
08408,Sécheval,49.86,4.67
08420,Signy-le-Petit,49.931,4.299
08437,Tailly,49.408,5.068
08440,Tarzy,49.876,4.297
08448,Thilay,49.9,4.808
08456,Tournavaux,49.873,4.784
08463,Vaux-en-Dieulet,49.478,4.992
08465,Vaux-lès-Rubigny,49.69,4.183
08486,Vireux-Molhain,50.077,4.705
08487,Vireux-Wallerand,50.057,4.747
09002,Aigues-Vives,43.001,1.877
09003,L'Aiguillon,42.91,1.9
09012,Appy,42.804,1.742
09020,Artigues,42.69,2.038
09023,Ascou,42.719,1.932
09031,Axiat,42.8,1.761
09032,Ax-les-Thermes,42.687,1.818
09039,La Bastide-de-Bousignac,43.058,1.884
09043,La Bastide-sur-l'Hers,42.951,1.9
09047,Bélesta,42.894,1.953
09048,Belloc,43.007,1.933
09051,Bénaix,42.895,1.851
09052,Besset,43.073,1.846
09053,Bestiac,42.787,1.8
09074,Camon,43.022,1.962
09078,Carcanières,42.708,2.124
09080,Carla-de-Roquefort,42.975,1.762
09087,Caussou,42.772,1.822
09089,Cazals-des-Baylès,43.093,1.94
09102,Coutens,43.068,1.822
09106,Dreuilhe,42.944,1.871
09107,Dun,43.026,1.793
09115,Esclagne,42.981,1.843
09125,Fougax-et-Barrineuf,42.872,1.898
09126,Freychenet,42.892,1.73
09131,Garanou,42.765,1.745
09139,L'Hospitalet-près-l'Andorre,42.596,1.778
09140,Ignaux,42.743,1.846
09142,Ilhat,42.951,1.785
09150,Lagarde,43.046,1.936
09157,Laroque-d'Olmes,42.968,1.872
09159,Lassur,42.741,1.718
09160,Lavelanet,42.934,1.846
09161,Léran,42.985,1.918
09165,Lesparrou,42.928,1.939
09166,Leychert,42.946,1.726
09168,Lieurac,42.985,1.791
09169,Limbrassac,43.011,1.844
09171,Lordat,42.798,1.785
09176,Luzenac,42.72,1.743
09178,Malegoude,43.112,1.933
09180,Manses,43.107,1.814
09189,Mérens-les-Vals,42.628,1.834
09193,Mijanès,42.71,2.012
09194,Mirepoix,43.109,1.869
09197,Montaillou,42.78,1.903
09200,Montbel,42.978,1.967
09206,Montferrier,42.866,1.771
09211,Montségur,42.843,1.827
09213,Moulin-Neuf,43.072,1.948
09215,Nalzen,42.919,1.748
09218,Orgeix,42.676,1.876
09220,Orlu,42.658,1.937
09227,Péreille,42.929,1.808
09228,Perles-et-Castelet,42.719,1.774
09229,Le Peyrat,42.956,1.928
09230,Le Pla,42.688,2.056
09232,Prades,42.791,1.86
09233,Pradettes,42.991,1.821
09237,Le Puch,42.721,2.099
09239,Quérigut,42.683,2.114
09242,Raissac,42.942,1.816
09243,Régat,42.988,1.887
09244,Rieucros,43.076,1.763
09249,Roquefixade,42.933,1.764
09250,Roquefort-les-Cascades,42.961,1.743
09251,Roumengoux,43.076,1.924
09252,Rouze,42.74,2.071
09260,Sainte-Foi,43.126,1.917
09262,Saint-Jean-d'Aigues-Vives,42.919,1.877
09266,Saint-Julien-de-Gras-Capou,43.037,1.856
09274,Saint-Quentin-la-Tour,43.031,1.907
09281,Sautel,42.968,1.816
09283,Savignac-les-Ormeaux,42.682,1.779
09298,Sorgeat,42.744,1.888
09305,Tabre,42.989,1.855
09309,Teilhet,43.097,1.782
09311,Tignac,42.751,1.799
09314,Tourtrol,43.069,1.799
09316,Troye-d'Ariège,43.021,1.887
09318,Unac,42.759,1.78
09320,Urs,42.778,1.735
09323,Vals,43.102,1.756
09325,Vaychis,42.744,1.822
09330,Vernaux,42.786,1.782
09336,Villeneuve-d'Olmes,42.912,1.821
09340,Vira,43.049,1.756
09341,Viviès,43.061,1.779
10002,Ailleville,48.255,4.694
10003,Aix-Villemaur-Pâlis,48.198,3.736
10004,Allibaudières,48.586,4.123
10005,Amance,48.292,4.487
10006,Arcis-sur-Aube,48.528,4.142
10007,Arconville,48.156,4.729
10008,Argançon,48.25,4.596
10009,Arrelles,48.046,4.274
10011,Arrentières,48.268,4.739
10012,Arsonval,48.28,4.651
10018,Auxon,48.092,3.924
10020,Avant-lès-Marcilly,48.432,3.56
10022,Avirey-Lingey,48.028,4.297
10023,Avon-la-Pèze,48.387,3.652
10024,Avreuil,48.053,3.998
10025,Bagneux-la-Fosse,47.999,4.291
10028,Balnot-la-Grange,47.988,4.198
10029,Balnot-sur-Laignes,48.037,4.353
10031,Barbuise,48.551,3.562
10032,Baroville,48.183,4.741
10033,Bar-sur-Aube,48.234,4.716
10034,Bar-sur-Seine,48.113,4.379
10035,Bayel,48.192,4.791
10038,Bercenay-le-Hayer,48.332,3.59
10039,Bergères,48.184,4.669
10040,Bernon,47.987,3.992
10041,Bertignolles,48.137,4.513
10042,Bérulle,48.171,3.672
10043,Bessy,48.541,4.025
10045,Beurey,48.176,4.473
10048,Bligny,48.174,4.604
10050,Bossancourt,48.283,4.612
10052,Boulages,48.587,3.923
10054,Bourdenay,48.361,3.591
10055,Bourguignons,48.141,4.362
10057,Bouy-sur-Orvin,48.423,3.497
10058,Bragelogne-Beauvoir,47.97,4.267
10062,Briel-sur-Barse,48.213,4.354
10068,Buxeuil,48.054,4.406
10069,Buxières-sur-Arce,48.137,4.456
10070,Celles-sur-Ource,48.074,4.422
10071,Chacenay,48.107,4.532
10075,Champfleury,48.614,4.031
10076,Champignol-lez-Mondeville,48.125,4.679
10077,Champigny-sur-Aube,48.568,4.072
10078,Champ-sur-Barse,48.239,4.414
10079,Channes,47.941,4.266
10080,Chaource,48.055,4.14
10083,Chappes,48.166,4.257
10085,Charmoy,48.393,3.58
10086,Charny-le-Bachot,48.539,3.952
10089,Châtres,48.493,3.837
10091,Chaudrey,48.485,4.245
10092,Chauffour-lès-Bailly,48.186,4.31
10095,Le Chêne,48.563,4.176
10096,Chennegy,48.217,3.849
10097,Chervey,48.135,4.49
10099,Chessy-les-Prés,48.014,3.934
10101,Coclois,48.471,4.331
10102,Colombé-la-Fosse,48.271,4.79
10103,Colombé-le-Sec,48.256,4.803
10106,Courceroy,48.468,3.408
10107,Coursan-en-Othe,48.078,3.826
10108,Courtaoult,48.025,3.872
10109,Courtenot,48.155,4.314
10111,Courteron,48.016,4.463
10113,Couvignon,48.204,4.67
10114,Crancey,48.519,3.637
10118,Les Croûtes,47.994,3.864
10119,Cunfin,48.044,4.67
10120,Cussangy,48.023,4.091
10121,Dampierre,48.565,4.365
10122,Davrey,48.046,3.96
10124,Dierrey-Saint-Julien,48.305,3.835
10126,Dolancourt,48.266,4.608
10127,Dommartin-le-Coq,48.498,4.356
10130,Dosnon,48.615,4.246
10131,Droupt-Saint-Basle,48.48,3.957
10132,Droupt-Sainte-Marie,48.502,3.94
10133,Eaux-Puiseaux,48.117,3.887
10135,Éclance,48.308,4.643
10136,Éguilly-sous-Bois,48.139,4.538
10137,Engente,48.28,4.764
10140,Ervy-le-Châtel,48.056,3.905
10141,Essoyes,48.05,4.539
10142,Estissac,48.256,3.811
10144,Étrelles-sur-Aube,48.559,3.877
10145,Faux-Villecerf,48.33,3.74
10146,Fay-lès-Marcilly,48.401,3.606
10148,Ferreux-Quincey,48.462,3.601
10150,Fontaine,48.209,4.718
10153,Fontaine-Mâcon,48.458,3.507
10154,Fontenay-de-Bossery,48.45,3.464
10155,Fontette,48.076,4.616
10157,La Fosse-Corduan,48.44,3.654
10158,Fouchères,48.149,4.271
10159,Fralignes,48.164,4.38
10160,Fravaux,48.236,4.642
10161,Fresnay,48.309,4.757
10163,Fuligny,48.34,4.698
10164,Gélannes,48.475,3.668
10167,Grandville,48.594,4.235
10168,Les Granges,48.057,4.062
10169,Gumery,48.44,3.422
10170,Gyé-sur-Seine,48.012,4.44
10172,Herbisse,48.615,4.122
10174,Isle-Aubigny,48.544,4.282
10176,Jaucourt,48.254,4.641
10178,Jessains,48.285,4.57
10181,Jully-sur-Sarce,48.109,4.279
10182,Juvancourt,48.116,4.813
10185,Lagesse,48.016,4.133
10187,Landreville,48.071,4.466
10188,Lantages,48.077,4.207
10194,Lévigny,48.298,4.707
10195,Lhuître,48.581,4.274
10197,Lignol-le-Château,48.213,4.812
10199,Loches-sur-Ource,48.07,4.504
10200,La Loge-aux-Chèvres,48.269,4.408
10201,La Loge-Pomblin,48.068,4.044
10202,Les Loges-Margueron,48.099,4.111
10203,Longchamp-sur-Aujon,48.152,4.818
10205,Longpré-le-Sec,48.188,4.528
10207,Longueville-sur-Aube,48.551,3.913
10208,La Louptière-Thénard,48.385,3.438
10213,Magnant,48.168,4.421
10215,Magny-Fouchard,48.235,4.545
10216,Mailly-le-Camp,48.674,4.186
10217,Maison-des-Champs,48.244,4.571
10218,Maisons-lès-Chaource,48.009,4.163
10219,Maisons-lès-Soulaines,48.295,4.783
10220,Maizières-la-Grande-Paroisse,48.504,3.789
10222,Maraye-en-Othe,48.152,3.865
10223,Marcilly-le-Hayer,48.331,3.644
10224,Marigny-le-Châtel,48.402,3.721
10225,Marnay-sur-Seine,48.515,3.554
10226,Marolles-lès-Bailly,48.184,4.346
10231,Le Mériot,48.511,3.442
10232,Merrey-sur-Arce,48.096,4.405
10233,Méry-sur-Seine,48.509,3.899
10234,Mesgrigny,48.48,3.864
10235,Mesnil-la-Comtesse,48.498,4.198
10236,Mesnil-Lettre,48.461,4.259
10237,Mesnil-Saint-Loup,48.308,3.772
10241,Metz-Robert,48.07,4.1
10242,Meurville,48.204,4.605
10247,Montfey,48.066,3.872
10250,Montier-en-l'Isle,48.27,4.683
10251,Montigny-les-Monts,48.092,3.965
10252,Montmartin-le-Haut,48.21,4.55
10254,Montpothier,48.576,3.516
10256,Montsuzain,48.446,4.141
10257,Morembert,48.503,4.331
10259,La Motte-Tilly,48.476,3.44
10261,Mussy-sur-Seine,47.984,4.507
10262,Neuville-sur-Seine,48.035,4.408
10263,Neuville-sur-Vanne,48.253,3.775
10264,Noé-les-Mallets,48.098,4.562
10266,Nogent-en-Othe,48.131,3.797
10267,Nogent-sur-Aube,48.485,4.299
10268,Nogent-sur-Seine,48.496,3.5
10269,Nozay,48.5,4.083
10271,Origny-le-Sec,48.463,3.779
10272,Ormes,48.556,4.113
10273,Ortillon,48.492,4.23
10274,Orvilliers-Saint-Julien,48.439,3.822
10275,Ossey-les-Trois-Maisons,48.439,3.744
10276,Paisy-Cosdon,48.215,3.699
10278,Pargues,48.018,4.205
10280,Pars-lès-Romilly,48.481,3.728
10284,Périgny-la-Rose,48.554,3.624
10288,Plaines-Saint-Lange,47.997,4.474
10289,Plancy-l'Abbaye,48.585,3.985
10290,Planty,48.268,3.65
10291,Plessis-Barbuise,48.573,3.586
10293,Poivres,48.683,4.277
10294,Poligny,48.175,4.346
10295,Polisot,48.073,4.355
10296,Polisy,48.058,4.362
10298,Pont-sur-Seine,48.509,3.597
10299,Pouan-les-Vallées,48.534,4.062
10301,Pouy-sur-Vannes,48.298,3.6
10302,Praslin,48.046,4.207
10305,Prémierfait,48.503,4.023
10306,Proverville,48.233,4.672
10308,Prunay-Belleville,48.366,3.783
10310,Puits-et-Nuisement,48.215,4.511
10312,Racines,48.048,3.846
10314,Ramerupt,48.522,4.304
10316,Rhèges,48.532,3.995
10317,Les Riceys,47.988,4.37
10318,Rigny-la-Nonneuse,48.414,3.649
10319,Rigny-le-Ferron,48.202,3.627
10323,Romilly-sur-Seine,48.519,3.722
10330,Rouvres-les-Vignes,48.238,4.827
10331,Rumilly-lès-Vaudes,48.125,4.195
10334,Saint-Aubin,48.483,3.553
10335,Saint-Benoist-sur-Vanne,48.235,3.668
10338,Saint-Étienne-sous-Barbuise,48.493,4.115
10339,Saint-Flavy,48.406,3.776
10341,Saint-Hilaire-sous-Romilly,48.498,3.657
10347,Saint-Loup-de-Buffigny,48.445,3.63
10348,Saint-Lupien,48.364,3.7
10350,Saint-Mards-en-Othe,48.163,3.789
10351,Saint-Martin-de-Bossenay,48.444,3.69
10354,Saint-Nabord-sur-Aube,48.513,4.202
10355,Saint-Nicolas-la-Chapelle,48.523,3.479
10356,Saint-Oulph,48.527,3.874
10358,Saint-Parres-lès-Vaudes,48.174,4.216
10361,Saint-Remy-sous-Barbuise,48.478,4.13
10364,Saint-Usage,48.099,4.634
10365,Salon,48.643,4.018
10366,Saulcy,48.278,4.835
10367,La Saulsotte,48.55,3.506
10369,Semoine,48.674,4.094
10370,Soligny-les-Étangs,48.402,3.516
10374,Spoy,48.228,4.614
10376,Thieffrain,48.2,4.438
10377,Thil,48.341,4.789
10378,Thors,48.308,4.805
10379,Torcy-le-Grand,48.523,4.168
10380,Torcy-le-Petit,48.522,4.187
10382,Traînel,48.414,3.457
10383,Trancault,48.371,3.533
10386,Trouans,48.639,4.25
10388,Turgy,48.03,4.053
10390,Urville,48.167,4.669
10392,Vallant-Saint-Georges,48.461,3.886
10395,Vanlay,48.019,4.019
10397,Vauchonvilliers,48.266,4.533
10398,Vaucogne,48.533,4.345
10400,Vaupoisson,48.501,4.216
10401,Vendeuvre-sur-Barse,48.246,4.461
10403,Vernonvilliers,48.315,4.679
10404,Verpillières-sur-Ource,48.041,4.586
10408,Viâpres-le-Petit,48.582,4.054
10410,Villadin,48.317,3.69
10417,Villemoiron-en-Othe,48.2,3.792
10418,Villemorien,48.08,4.295
10419,Villemoyenne,48.188,4.247
10420,Villenauxe-la-Grande,48.595,3.548
10421,La Villeneuve-au-Châtelot,48.55,3.607
10422,Villeneuve-au-Chemin,48.089,3.84
10423,La Villeneuve-au-Chêne,48.249,4.391
10426,Ville-sous-la-Ferté,48.136,4.772
10427,Ville-sur-Arce,48.109,4.445
10428,Ville-sur-Terre,48.336,4.735
10429,Villette-sur-Aube,48.529,4.109
10430,Villiers-Herbisse,48.643,4.123
10432,Villiers-sous-Praslin,48.061,4.252
10433,Villy-en-Trodes,48.197,4.389
10436,Vinets,48.545,4.225
10437,Virey-sous-Bar,48.134,4.306
10438,Vitry-le-Croisé,48.144,4.579
10439,Viviers-sur-Artaut,48.098,4.498
10440,Voigny,48.236,4.765
10441,Vosnon,48.109,3.835
10442,Voué,48.46,4.124
10443,Vougrey,48.088,4.236
10444,Vulaines,48.24,3.626
11002,Airoux,43.368,1.875
11007,Albières,42.947,2.446
11009,Alzonne,43.265,2.175
11010,Antugnac,42.962,2.219
11012,Argeliers,43.311,2.911
11015,Arques,42.947,2.387
11017,Artigues,42.791,2.207
11018,Arzens,43.201,2.205
11019,Aunat,42.789,2.1
11020,Auriac,42.926,2.494
11021,Axat,42.798,2.241
11022,Azille,43.274,2.658
11028,Belcaire,42.832,1.946
11031,Belfort-sur-Rebenty,42.83,2.05
11032,Bellegarde-du-Razès,43.108,2.051
11035,Belvianes-et-Cavirac,42.847,2.212
11036,Belvis,42.856,2.075
11038,Bessède-de-Sault,42.785,2.138
11044,Bouisse,42.984,2.434
11045,Bouriège,42.996,2.162
11046,Bourigeole,42.986,2.124
11047,Le Bousquet,42.717,2.176
11049,Bram,43.251,2.11
11051,Brézilhac,43.168,2.075
11055,Bugarach,42.878,2.351
11056,Cabrespine,43.376,2.472
11057,Cahuzac,43.191,1.855
11059,Cailhavel,43.165,2.124
11060,Cailla,42.811,2.197
11062,Campagna-de-Sault,42.758,2.044
11063,Campagne-sur-Aude,42.916,2.202
11065,Camps-sur-l'Agly,42.864,2.419
11066,Camurac,42.799,1.924
11070,Carlipa,43.306,2.122
11072,La Cassaigne,43.196,1.989
11073,Cassaignes,42.948,2.297
11075,Castans,43.414,2.488
11076,Castelnaudary,43.323,1.961
11079,Caudebronde,43.387,2.303
11080,Val de Lambronne,43.075,1.975
11081,Caunes-Minervois,43.333,2.516
11086,Caves,42.937,2.96
11087,Cazalrenoux,43.189,1.947
11089,Cenne-Monestiés,43.324,2.13
11091,Chalabre,42.982,2.01
11092,Citou,43.376,2.533
11093,Le Clat,42.787,2.174
11096,Comus,42.828,1.889
11100,Corbières,43.045,2.0
11101,Coudons,42.864,2.12
11103,Couiza,42.935,2.27
11104,Counozouls,42.702,2.23
11107,Courtauly,43.041,2.045
11108,La Courtète,43.142,2.032
11109,Coustaussa,42.937,2.286
11112,Cubières-sur-Cinoble,42.863,2.466
11114,Cumiès,43.3,1.832
11115,Cuxac-Cabardès,43.392,2.278
11127,Escouloubre,42.732,2.132
11128,Escueillens-et-Saint-Just-de-Bélengard,43.1,2.022
11129,Espéraza,42.932,2.221
11130,Espezel,42.843,2.026
11131,Val-du-Faby,42.928,2.18
11135,La Fajolle,42.752,1.965
11136,Fanjeaux,43.187,2.037
11138,Fendeille,43.271,1.948
11139,Fenouillet-du-Razès,43.156,2.03
11141,Ferran,43.153,2.09
11142,Festes-et-Saint-André,42.962,2.116
11143,Feuilla,42.929,2.901
11144,Fitou,42.896,2.967
11147,Fontanès-de-Sault,42.768,2.082
11149,Fonters-du-Razès,43.238,1.923
11153,La Force,43.198,2.084
11155,Fourtou,42.91,2.443
11159,Gaja-la-Selve,43.2,1.884
11160,Galinagues,42.806,2.048
11162,Generville,43.21,1.931
11163,Gincla,42.764,2.332
11165,Ginoles,42.865,2.157
11168,Granès,42.895,2.253
11173,Hounoux,43.133,2.003
11175,Issel,43.368,1.998
11177,Joucou,42.825,2.085
11178,Labastide-d'Anjou,43.347,1.853
11180,Labastide-Esparbairenque,43.393,2.403
11181,Labécède-Lauragais,43.396,2.011
11182,Lacombe,43.406,2.24
11184,Lafage,43.166,1.867
11187,Lanet,42.966,2.486
11190,La Redorte,43.248,2.65
11192,Lasbordes,43.3,2.063
11193,Lasserre-de-Prouille,43.181,2.085
11195,Laurabuc,43.261,1.995
11196,Laurac,43.23,1.969
11198,Laure-Minervois,43.271,2.51
11200,Lespinassière,43.409,2.548
11202,Leucate,42.899,3.027
11204,Lignairolles,43.094,2.001
11209,Luc-sur-Aude,42.964,2.281
11219,Marsa,42.82,2.139
11221,Les Martys,43.422,2.31
11225,Mas-Saintes-Puelles,43.314,1.878
11228,Mazerolles-du-Razès,43.136,2.066
11229,Mazuby,42.788,2.033
11230,Mérial,42.771,1.964
11232,Miraval-Cabardès,43.381,2.341
11234,Mireval-Lauragais,43.264,1.968
11238,Molleville,43.312,1.836
11239,Montauriol,43.275,1.832
11240,Montazels,42.952,2.243
11244,Montfort-sur-Boulzane,42.73,2.308
11246,Montgradail,43.123,2.033
11249,Montjardin,42.98,2.051
11250,Montjoi,42.996,2.479
11253,Montolieu,43.314,2.215
11254,Montréal,43.2,2.148
11260,Mouthoumet,42.964,2.532
11263,Nébias,42.89,2.105
11265,Niort-de-Sault,42.784,1.998
11266,Port-la-Nouvelle,43.021,3.04
11268,Orsans,43.155,1.98
11275,Payra-sur-l'Hers,43.262,1.875
11277,Pécharic-et-le-Py,43.194,1.827
11281,Pexiora,43.269,2.04
11282,Peyrefitte-du-Razès,43.059,2.022
11284,Peyrens,43.362,1.96
11286,Peyriac-Minervois,43.294,2.567
11287,Peyrolles,42.964,2.338
11290,Plaigne,43.171,1.807
11291,Plavilla,43.141,1.907
11297,Pradelles-Cabardès,43.412,2.439
11300,Puginier,43.382,1.926
11301,Puichéric,43.229,2.612
11302,Puilaurens,42.813,2.299
11303,Puivert,42.909,2.059
11304,Quillan,42.876,2.191
11306,Quirbajou,42.836,2.169
11308,Raissac-sur-Lampy,43.277,2.161
11309,Rennes-le-Château,42.914,2.274
11310,Rennes-les-Bains,42.924,2.341
11312,Ribouisse,43.171,1.904
11313,Ricaud,43.347,1.896
11315,Rieux-Minervois,43.268,2.591
11316,Rivel,42.921,2.003
11317,Rodome,42.796,2.067
11318,Roquecourbe-Minervois,43.215,2.654
11320,Roquefeuil,42.847,1.995
11321,Roquefort-de-Sault,42.739,2.2
11331,Saint-Amans,43.227,1.886
11335,Sainte-Colombe-sur-Guette,42.753,2.248
11336,Sainte-Colombe-sur-l'Hers,42.946,1.963
11339,Saint-Denis,43.356,2.218
11340,Sainte-Eulalie,43.243,2.206
11341,Saint-Ferriol,42.896,2.226
11342,Saint-Frichoux,43.248,2.559
11343,Saint-Gaudéric,43.126,1.959
11346,Saint-Jean-de-Paracol,42.938,2.109
11347,Saint-Julia-de-Bec,42.86,2.254
11348,Saint-Julien-de-Briola,43.161,1.945
11350,Saint-Just-et-le-Bézu,42.878,2.288
11352,Saint-Louis-et-Parahou,42.852,2.322
11356,Saint-Martin-Lalande,43.302,2.016
11357,Saint-Martin-le-Vieil,43.294,2.154
11358,Saint-Martin-Lys,42.824,2.238
11361,Saint-Papoul,43.337,2.045
11362,Saint-Paulet,43.405,1.881
11367,Saissac,43.366,2.162
11373,Salvezines,42.775,2.285
11374,Salza,42.985,2.506
11375,Seignalens,43.099,1.967
11376,La Serpent,42.965,2.175
11377,Serres,42.945,2.329
11380,Sonnac-sur-l'Hers,43.015,2.002
11381,Sougraigne,42.905,2.375
11382,Souilhanels,43.356,1.917
11383,Souilhe,43.369,1.917
11384,Soulatgé,42.88,2.504
11385,Soupex,43.382,1.891
11389,Terroles,42.991,2.343
11391,La Tourette-Cabardès,43.382,2.325
11395,Trassanel,43.348,2.443
11396,Trausse,43.318,2.569
11398,Treilles,42.918,2.943
11399,Tréville,43.383,1.955
11400,Tréziers,43.056,1.963
11402,Valmigère,42.984,2.384
11406,Véraza,42.993,2.308
11407,Verdun-en-Lauragais,43.368,2.078
11418,Villasavary,43.232,2.033
11419,Villautou,43.162,1.837
11424,Villefort,42.951,2.048
11428,Villemagne,43.368,2.109
11430,Villeneuve-la-Comptal,43.285,1.92
11432,Villeneuve-lès-Montréal,43.179,2.113
11433,Villeneuve-Minervois,43.329,2.468
11434,Villepinte,43.281,2.096
11437,Villesèquelande,43.233,2.23
11438,Villesiscle,43.228,2.09
11439,Villespy,43.322,2.098
12003,Les Albres,44.541,2.18
12004,Almont-les-Junies,44.601,2.311
12006,Alrance,44.135,2.676
12009,Arnac-sur-Dourdou,43.719,2.946
12011,Arvieu,44.191,2.667
12013,Aubin,44.532,2.256
12015,Auriac-Lagast,44.145,2.596
12016,Auzits,44.5,2.322
12017,Ayssènes,44.092,2.766
12019,Balaguier-sur-Rance,43.896,2.577
12021,Le Bas Ségala,44.339,2.143
12022,La Bastide-Pradines,44.01,3.056
12023,La Bastide-Solages,43.95,2.525
12025,Belmont-sur-Rance,43.825,2.751
12028,Boisse-Penchot,44.581,2.212
12030,Bouillac,44.573,2.174
12035,Brasc,43.979,2.573
12037,Broquiès,44.018,2.706
12038,Brousse-le-Château,44.006,2.638
12039,Brusque,43.765,2.948
12042,Calmels-et-le-Viala,43.955,2.758
12044,Camarès,43.818,2.885
12054,La Capelle-Bleys,44.304,2.179
12055,La Capelle-Bonance,44.452,3.027
12057,Cassagnes-Bégonhès,44.179,2.515
12059,Castanet,44.293,2.308
12066,Clairvaux-d'Aveyron,44.407,2.409
12067,Le Clapier,43.828,3.174
12069,Combret,43.841,2.685
12071,Compolibat,44.379,2.186
12075,Connac,44.02,2.594
12076,Conques-en-Rouergue,44.595,2.42
12077,Cornus,43.892,3.201
12078,Les Costes-Gozon,44.016,2.8
12080,Coupiac,43.947,2.593
12082,La Couvertoirade,43.929,3.289
12083,Cransac,44.519,2.288
12089,Decazeville,44.567,2.252
12092,Durenque,44.101,2.622
12097,Espeyrac,44.619,2.519
12099,Fayet,43.804,2.978
12100,Firmi,44.548,2.325
12101,Flagnac,44.594,2.265
12109,Gissac,43.868,2.906
12124,Lassouts,44.487,2.855
12125,Laval-Roquecezière,43.812,2.635
12127,Lédergues,44.08,2.44
12128,Lescure-Jaoul,44.226,2.147
12129,Lestrade-et-Thouels,44.054,2.648
12130,Livinhac-le-Haut,44.597,2.216
12138,Marcillac-Vallon,44.477,2.465
12139,Marnhagues-et-Latour,43.879,3.042
12141,Martrin,43.929,2.634
12147,Montagnol,43.831,3.025
12149,Montclar,43.98,2.631
12153,Montjaux,44.1,2.904
12154,Montlaur,43.865,2.834
12155,Fondamente,43.862,3.115
12161,Mouret,44.514,2.521
12163,Murasson,43.761,2.762
12165,Muret-le-Château,44.496,2.572
12171,Nauviale,44.513,2.433
12179,Peux-et-Couffouleux,43.763,2.88
12182,Pierrefiche,44.434,2.922
12183,Plaisance,43.93,2.563
12184,Pomayrols,44.487,3.059
12186,Pousthomy,43.856,2.598
12189,Pradinas,44.247,2.269
12190,Prévinquières,44.366,2.244
12192,Mounes-Prohencoux,43.798,2.819
12193,Pruines,44.535,2.488
12195,Rebourguil,43.885,2.757
12197,Réquista,44.032,2.549
12198,Rieupeyroux,44.309,2.23
12203,Roquefort-sur-Soulzon,43.971,2.982
12207,Rullac-Saint-Cirq,44.119,2.477
12208,Saint-Affrique,43.966,2.866
12212,Saint-Beaulize,43.906,3.1
12215,Saint-Christophe-Vallon,44.48,2.397
12219,Sainte-Eulalie-d'Olt,44.466,2.92
12221,Saint-Félix-de-Lunel,44.565,2.514
12222,Saint-Félix-de-Sorgues,43.883,2.987
12224,Saint Geniez d'Olt et d'Aubrac,44.473,2.982
12228,Saint-Izaire,43.971,2.703
12229,Saint-Jean-d'Alcapiès,43.949,2.967
12230,Saint-Jean-Delnous,44.041,2.492
12231,Saint-Jean-du-Bruel,44.026,3.382
12232,Saint-Jean-et-Saint-Paul,43.929,3.029
12233,Saint-Juéry,43.924,2.696
12239,Saint-Martin-de-Lenne,44.424,2.966
12240,Saint-Parthem,44.633,2.292
12243,Saint-Rome-de-Cernon,44.009,2.984
12244,Saint-Rome-de-Tarn,44.033,2.89
12246,Saint-Santin,44.643,2.258
12247,Saint-Saturnin-de-Lenne,44.409,3.022
12248,Saint-Sernin-sur-Rance,43.879,2.623
12249,Saint-Sever-du-Moustier,43.772,2.693
12251,Saint-Victor-et-Melvieu,44.051,2.81
12254,Salles-la-Source,44.444,2.525
12255,Salmiech,44.194,2.587
12258,La Salvetat-Peyralès,44.221,2.197
12260,Sauclières,43.98,3.375
12267,La Selve,44.106,2.536
12268,Sénergues,44.606,2.463
12269,La Serre,43.894,2.656
12274,Sylvanès,43.825,2.953
12275,Tauriac-de-Camarès,43.776,3.031
12282,Tournemire,43.969,3.027
12284,Le Truel,44.054,2.748
12286,Vabres-l'Abbaye,43.921,2.82
12288,Valady,44.447,2.443
12292,Versols-et-Lapeyre,43.9,2.936
12295,Viala-du-Pas-de-Jaux,43.959,3.068
12296,Viala-du-Tarn,44.086,2.839
12298,Villecomtal,44.543,2.576
12299,Villefranche-de-Panat,44.097,2.715
12303,Vimenet,44.4,2.93
12305,Viviez,44.556,2.22
13014,Berre-l'Étang,43.504,5.161
13017,Boulbon,43.868,4.698
13029,Cornillon-Confoux,43.578,5.077
13039,Fos-sur-Mer,43.456,4.904
13047,Istres,43.55,4.951
13061,Saint-Pierre-de-Mézoargues,43.861,4.657
13063,Miramas,43.584,5.014
13077,Port-de-Bouc,43.423,4.993
13078,Port-Saint-Louis-du-Rhône,43.415,4.807
13092,Saint-Chamas,43.544,5.073
13096,Saintes-Maries-de-la-Mer,43.504,4.464
13108,Tarascon,43.794,4.686
14027,Les Monts d'Aunay,49.014,-0.634
14035,Balleroy-sur-Drôme,49.18,-0.839
14043,Barou-en-Auge,48.93,-0.039
14050,La Bazoque,49.154,-0.878
14064,Bernières-d'Ailly,48.948,-0.102
14078,Blay,49.28,-0.836
14084,Bonnemaison,49.004,-0.586
14096,Brémoy,48.998,-0.781
14103,Le Breuil-en-Bessin,49.255,-0.856
14130,Campigny,49.249,-0.801
14140,Castillon,49.195,-0.798
14147,Cernay,49.016,0.324
14149,Cesny-aux-Vignes,49.086,-0.121
14173,Condé-sur-Ifs,49.036,-0.14
14182,Cormolain,49.129,-0.863
14190,Courcy,48.97,-0.034
14194,Courtonne-les-Deux-Églises,49.089,0.378
14195,Courvaudon,49.027,-0.574
14209,Crouay,49.269,-0.817
14245,Ernes,49.011,-0.125
14273,La Folletière-Abenon,48.974,0.408
14345,Jort,48.973,-0.073
14347,Dialan sur Chaîne,49.021,-0.746
14368,Lisores,48.956,0.212
14369,Litteau,49.153,-0.91
14370,Le Molay-Littry,49.234,-0.889
14379,Longvillers,49.046,-0.644
14381,Louvagny,48.95,-0.047
14394,Maizières,49.014,-0.167
14412,Le Mesnil-au-Grain,49.047,-0.606
14431,Mézidon Vallée d'Auge,49.078,-0.074
14445,Montfiquet,49.185,-0.889
14446,Montigny,49.041,-0.534
14473,Notre-Dame-de-Livaye,49.118,0.041
14474,Notre-Dame-d'Estrées-Corbon,49.136,-0.002
14478,Orbec,49.024,0.385
14482,Ouézy,49.085,-0.104
14506,Planquery,49.162,-0.826
14527,Belle Vie en Auge,49.116,-0.036
14547,Rubercy,49.285,-0.886
14570,Valorbiquet,49.051,0.302
14576,Val-de-Vie,48.959,0.164
14579,Seulline,49.027,-0.689
14621,Saint-Martin-de-Bienfaite-la-Cressonnière,49.033,0.353
14654,Saint-Pierre-en-Auge,49.016,-0.041
14667,Saon,49.271,-0.863
14668,Saonnet,49.272,-0.881
14669,Sassy,48.986,-0.139
14705,Tournières,49.23,-0.938
14714,Le Tronquay,49.227,-0.82
14735,Vendeuvre,49.007,-0.083
14740,La Vespière-Friardel,49.011,0.425
14742,Vicques,48.953,-0.074
15001,Allanche,45.231,2.953
15002,Alleuze,44.96,3.098
15003,Ally,45.164,2.326
15004,Andelat,45.07,3.059
15005,Anglards-de-Saint-Flour,44.989,3.158
15006,Anglards-de-Salers,45.197,2.466
15009,Apchon,45.245,2.698
15010,Arches,45.298,2.318
15013,Auriac-l'Église,45.264,3.126
15015,Auzers,45.276,2.465
15018,Barriac-les-Bosquets,45.148,2.265
15021,Boisset,44.786,2.255
15022,Bonnac,45.21,3.147
15024,Brageac,45.204,2.266
15025,Albepierre-Bredons,45.077,2.82
15026,Brezons,45.01,2.792
15027,Puycapel,44.721,2.362
15029,Cassaniouze,44.674,2.381
15032,Celoux,45.138,3.261
15033,Cézens,44.985,2.859
15034,Chaliers,44.97,3.238
15036,Chalvignac,45.248,2.265
15040,Chanterelle,45.377,2.833
15041,La Chapelle-d'Alagnon,45.105,2.908
15042,La Chapelle-Laurent,45.184,3.242
15043,Charmensac,45.226,3.075
15045,Chaudes-Aigues,44.849,2.998
15046,Chaussenac,45.176,2.273
15049,Cheylade,45.199,2.72
15050,Le Claux,45.15,2.7
15051,Clavières,44.993,3.31
15052,Collandres,45.216,2.641
15053,Coltines,45.093,2.997
15054,Condat,45.349,2.792
15055,Coren,45.088,3.108
15059,Cussac,44.981,2.936
15061,Dienne,45.165,2.807
15063,Drugeac,45.162,2.389
15064,Escorailles,45.169,2.332
15065,Espinasse,44.87,2.93
15066,Le Falgoux,45.145,2.639
15067,Le Fau,45.109,2.6
15069,Ferrières-Saint-Mary,45.172,3.082
15070,Fontanges,45.109,2.517
15073,Fridefont,44.906,3.095
15077,Gourdièges,44.946,2.882
15078,Jabrun,44.794,2.963
15079,Jaleyrac,45.27,2.368
15080,Joursac,45.165,3.014
15091,Landeyrat,45.273,2.872
15097,Lastic,45.112,3.219
15098,Laurie,45.285,3.082
15100,Laveissenet,45.077,2.878
15101,Laveissière,45.104,2.783
15102,Lavigerie,45.126,2.732
15104,Leynhac,44.741,2.281
15105,Leyvaux,45.325,3.089
15106,Lieutadès,44.831,2.898
15110,Lugarde,45.288,2.758
15112,Malbo,44.981,2.753
15114,Marcenat,45.316,2.856
15116,Marchastel,45.274,2.729
15117,Marcolès,44.782,2.357
15119,Massiac,45.245,3.2
15120,Mauriac,45.218,2.317
15122,Maurs,44.712,2.173
15123,Méallet,45.263,2.415
15124,Menet,45.298,2.579
15125,Mentières,45.079,3.142
15126,Molèdes,45.267,3.043
15127,Molompize,45.233,3.126
15128,La Monselie,45.321,2.551
15129,Montboudif,45.37,2.732
15130,Montchamp,45.069,3.215
15132,Montgreleix,45.356,2.889
15137,Moussages,45.234,2.473
15138,Murat,45.111,2.861
15139,Narnhac,44.935,2.766
15141,Neussargues en Pinatelle,45.132,2.985
15142,Neuvéglise-sur-Truyère,44.931,2.979
15147,Parlan,44.828,2.173
15148,Paulhac,45.02,2.887
15149,Paulhenc,44.885,2.816
15151,Peyrusse,45.211,3.03
15152,Pierrefort,44.929,2.838
15153,Pleaux,45.13,2.249
15155,Pradiers,45.284,2.921
15157,Quézac,44.758,2.184
15158,Rageade,45.115,3.268
15159,Raulhac,44.902,2.657
15161,Rézentières,45.134,3.106
15162,Riom-ès-Montagnes,45.29,2.657
15164,Roffiac,45.048,3.016
15167,Rouziers,44.796,2.21
15168,Ruynes-en-Margeride,45.005,3.224
15170,Saint-Amandin,45.328,2.708
15172,Saint-Antoine,44.749,2.336
15173,Saint-Bonnet-de-Condat,45.281,2.804
15174,Saint-Bonnet-de-Salers,45.16,2.48
15179,Saint-Cirgues-de-Malbert,45.086,2.38
15181,Saint-Constant-Fournoulès,44.688,2.246
15184,Saint-Étienne-de-Maurs,44.722,2.229
15185,Saint-Étienne-de-Chomeil,45.344,2.619
15186,Sainte-Eulalie,45.125,2.381
15187,Saint-Flour,45.028,3.083
15188,Saint-Georges,45.02,3.138
15190,Saint-Hippolyte,45.219,2.703
15194,Saint-Julien-de-Toursac,44.775,2.202
15198,Sainte-Marie,44.892,2.883
15200,Saint-Martin-Cantalès,45.089,2.305
15201,Saint-Martin-sous-Vigouroux,44.935,2.794
15202,Saint-Martin-Valmeroux,45.12,2.443
15203,Saint-Mary-le-Plain,45.176,3.144
15205,Saint-Paul-de-Salers,45.137,2.558
15207,Saint-Poncy,45.16,3.195
15212,Saint-Santin-de-Maurs,44.656,2.211
15213,Saint-Saturnin,45.234,2.794
15214,Saint-Saury,44.879,2.124
15218,Saint-Vincent-de-Salers,45.208,2.539
15219,Salers,45.145,2.496
15220,Salins,45.188,2.401
15225,Ségur-les-Villas,45.208,2.823
15226,Sénezergues,44.719,2.407
15229,Soulages,45.09,3.262
15230,Sourniac,45.275,2.335
15231,Talizat,45.124,3.053
15232,Tanavelle,45.026,2.984
15235,Les Ternes,44.996,2.994
15237,Tiviers,45.074,3.176
15240,Trémouille,45.385,2.67
15242,Le Trioulou,44.671,2.191
15243,Trizac,45.244,2.544
15244,Ussel,45.074,2.952
15245,Vabres,45.038,3.196
15246,Valette,45.264,2.601
15247,Valjouze,45.164,3.061
15248,Valuéjols,45.053,2.907
15249,Le Vaulmier,45.184,2.586
15251,Védrines-Saint-Loup,45.053,3.272
15253,Vernols,45.219,2.883
15256,Vèze,45.278,2.978
15259,Vieillespesse,45.117,3.159
15261,Le Vigean,45.223,2.367
15262,Villedieu,44.997,3.055
15263,Virargues,45.129,2.898
15269,Besse,45.101,2.355
16011,Anais,45.769,0.206
16013,Angeac-Charente,45.623,-0.082
16020,Aubeterre-sur-Dronne,45.261,0.168
16027,Barbezières,45.912,-0.088
16029,Bardenac,45.301,-0.015
16032,Bassac,45.665,-0.099
16034,Bazac,45.221,0.037
16035,Beaulieu-sur-Sonnette,45.927,0.373
16037,Bellon,45.313,0.117
16045,Birac,45.564,-0.055
16047,Blanzaguet-Saint-Cybard,45.473,0.313
16048,Boisbreteau,45.33,-0.159
16049,Bonnes,45.236,0.144
16050,Bonneuil,45.576,-0.135
16052,Bors (Canton de Tude-et-Lavalette),45.34,0.148
16053,Bors (Canton de Charente-Sud),45.326,-0.2
16055,Bouëx,45.625,0.318
16056,Bourg-Charente,45.666,-0.222
16057,Bouteville,45.607,-0.127
16060,Bréville,45.789,-0.275
16061,Brie,45.734,0.267
16063,Brie-sous-Chalais,45.32,0.012
16066,Brossac,45.324,-0.047
16068,Cellefrouin,45.888,0.392
16073,Chalais,45.274,0.039
16078,Champniers,45.717,0.196
16079,Chantillac,45.326,-0.255
16081,La Chapelle,45.831,0.052
16084,Charras,45.544,0.429
16085,Chasseneuil-sur-Bonnieure,45.824,0.441
16088,Chassors,45.71,-0.207
16090,Châteauneuf-sur-Charente,45.596,-0.051
16091,Châtignac,45.348,-0.004
16096,Cherves-Châtelars,45.811,0.554
16099,Chillac,45.361,-0.09
16103,Combiers,45.511,0.409
16108,Coulonges,45.838,0.09
16109,Courbillac,45.773,-0.181
16111,Courgeac,45.394,0.082
16112,Courlac,45.301,0.088
16117,Curac,45.296,0.021
16119,Dignac,45.554,0.284
16120,Dirac,45.599,0.242
16123,Échallat,45.722,-0.044
16125,Édon,45.489,0.351
16130,Les Essards,45.237,0.111
16133,Étriac,45.527,-0.01
16139,Fleurac,45.718,-0.086
16145,Foussignac,45.713,-0.125
16146,Garat,45.626,0.267
16147,Gardes-le-Pontaroux,45.51,0.31
16148,Genac-Bignac,45.801,0.022
16150,Gensac-la-Pallue,45.657,-0.269
16153,Mainxe-Gondeville,45.668,-0.156
16155,Les Gours,45.96,-0.072
16157,Le Grand-Madieu,45.941,0.448
16161,Guizengeard,45.311,-0.123
16165,Houlette,45.756,-0.211
16167,Jarnac,45.686,-0.165
16168,Jauldes,45.781,0.251
16170,Juignac,45.368,0.158
16171,Juillac-le-Coq,45.589,-0.256
16174,Julienne,45.69,-0.229
16175,Val des Vignes,45.535,-0.035
16177,Ladiville,45.513,-0.064
16180,Laprade,45.28,0.186
16192,Terres-de-Haute-Charente,45.91,0.573
16194,Lupsault,45.935,-0.065
16195,Lussac,45.858,0.466
16198,Magnac-Lavalette-Villars,45.509,0.255
16204,Bellevigne,45.552,-0.103
16205,Manot,45.934,0.621
16208,Mareuil,45.772,-0.136
16215,Médillac,45.216,0.014
16216,Mérignac,45.696,-0.071
16220,Les Métairies,45.707,-0.176
16222,Montboyer,45.332,0.069
16225,Montembœuf,45.774,0.551
16226,Montignac-Charente,45.78,0.103
16227,Montignac-le-Coq,45.342,0.215
16230,Montmoreau,45.423,0.127
16232,Mornac,45.685,0.293
16233,Mosnac-Saint-Simeux,45.615,-0.013
16239,Mouzon,45.796,0.611
16240,Nabinaud,45.293,0.21
16243,Nercillac,45.724,-0.271
16245,Nieuil,45.883,0.524
16252,Orival,45.283,0.069
16254,Palluaud,45.348,0.243
16255,Parzac,45.924,0.421
16256,Passirac,45.348,-0.062
16260,Pillac,45.319,0.181
16261,Les Pins,45.812,0.37
16271,Puymoyen,45.616,0.173
16275,Ranville-Breuillaud,45.909,-0.124
16277,Réparsac,45.737,-0.249
16279,Rioux-Martin,45.243,-0.004
16284,Rouffiac,45.265,0.098
16285,Rougnac,45.537,0.354
16286,Rouillac,45.782,-0.074
16291,Ruelle-sur-Touvre,45.684,0.231
16295,Saint-Amant-de-Boixe,45.802,0.14
16297,Graves-Saint-Amant,45.638,-0.105
16298,Saint-Amant-de-Nouère,45.736,-0.006
16302,Saint-Avit,45.244,0.044
16308,Saint-Claud,45.898,0.472
16312,Saint-Cybardeaux,45.773,-0.026
16315,Saint-Félix,45.371,0.012
16320,Saint-Genis-d'Hiersac,45.754,0.036
16329,Saint-Laurent-de-Céris,45.943,0.499
16331,Saint-Laurent-des-Combes,45.353,0.034
16334,Saint-Martial,45.371,0.058
16336,Saint-Mary,45.845,0.362
16339,Val-d'Auge,45.851,-0.087
16340,Saint-Même-les-Carrières,45.645,-0.143
16343,Saint-Preuil,45.601,-0.172
16346,Saint-Quentin-de-Chalais,45.243,0.073
16347,Saint-Romain,45.283,0.137
16349,Sainte-Sévère,45.764,-0.25
16350,Saint-Séverin,45.311,0.245
16352,Saint-Simon,45.655,-0.075
16354,Sainte-Souline,45.378,-0.021
16357,Saint-Vallier,45.288,-0.084
16362,Salles-Lavalette,45.388,0.232
16365,Sauvignac,45.259,-0.077
16366,Segonzac,45.618,-0.216
16368,Sers,45.585,0.319
16369,Sigogne,45.738,-0.165
16374,Soyaux,45.64,0.207
16375,Suaux,45.848,0.514
16377,La Tâche,45.87,0.362
16382,Torsac,45.569,0.209
16383,Tourriers,45.793,0.194
16385,Touvre,45.658,0.268
16387,Triac-Lautrait,45.683,-0.116
16393,Vars,45.756,0.136
16395,Vaux-Rouillac,45.742,-0.09
16397,Verdille,45.881,-0.095
16399,Verrières,45.564,-0.262
16402,Vibrac,45.643,-0.059
16408,Villebois-Lavalette,45.479,0.283
16412,Villejoubert,45.808,0.173
16416,Vitrac-Saint-Vincent,45.798,0.495
16419,Vouharte,45.808,0.08
16422,Vouzan,45.6,0.36
16423,Xambes,45.824,0.106
16424,Yviers,45.274,-0.025
17004,Île-d'Aix,46.018,-1.17
17015,Arces,45.56,-0.874
17023,Aujac,45.848,-0.394
17024,Aulnay,46.02,-0.348
17025,Aumagne,45.88,-0.412
17026,Authon-Ébéon,45.842,-0.426
17029,Bagnizeau,45.9,-0.316
17031,Ballans,45.808,-0.225
17034,Barzan,45.531,-0.868
17035,Bazauges,45.917,-0.165
17037,Beauvais-sur-Matha,45.893,-0.179
17048,Blanzac-lès-Matha,45.872,-0.354
17054,Boresse-et-Martron,45.273,-0.127
17062,Bresdon,45.865,-0.145
17067,Brie-sous-Matha,45.817,-0.254
17071,La Brousse,45.902,-0.365
17074,Bussac-Forêt,45.202,-0.379
17077,Cercoux,45.127,-0.208
17081,Chamouillac,45.306,-0.465
17092,Chartuzac,45.337,-0.417
17093,Le Château-d'Oléron,45.881,-1.217
17095,Chatenet,45.299,-0.292
17096,Chaunac,45.357,-0.359
17098,Chenac-Saint-Seurin-d'Uzet,45.514,-0.812
17099,Chepniers,45.253,-0.326
17101,Cherbonnières,45.968,-0.34
17104,Chevanceaux,45.299,-0.213
17105,Chives,45.951,-0.122
17110,Clérac,45.171,-0.234
17117,Contré,46.012,-0.261
17118,Corignac,45.245,-0.393
17126,Courcerac,45.843,-0.366
17129,Courpignac,45.314,-0.5
17130,Coux,45.32,-0.409
17131,Cozes,45.576,-0.824
17135,Cressé,45.916,-0.212
17138,Dampierre-sur-Boutonne,46.073,-0.388
17149,Les Éduts,45.998,-0.206
17152,Épargnes,45.546,-0.796
17156,Expiremont,45.333,-0.375
17162,Fontaine-Chalendray,45.947,-0.176
17167,Le Fouilloux,45.206,-0.126
17173,La Genétouze,45.221,-0.052
17176,Gibourne,45.929,-0.312
17177,Le Gicq,45.936,-0.251
17180,Gourvillette,45.889,-0.222
17183,Grézac,45.603,-0.835
17188,Haimps,45.863,-0.255
17199,Jussas,45.277,-0.356
17206,Loiré-sur-Nie,45.958,-0.29
17212,Louzignac,45.832,-0.228
17217,Macqueville,45.796,-0.204
17223,Massac,45.863,-0.218
17224,Matha,45.864,-0.315
17229,Mérignac,45.33,-0.301
17231,Messac,45.346,-0.313
17232,Meursac,45.652,-0.82
17239,Mons,45.806,-0.337
17240,Montendre,45.288,-0.388
17241,Montguyon,45.21,-0.17
17243,Montlieu-la-Garde,45.234,-0.271
17244,Montpellier-de-Médillan,45.633,-0.754
17248,Mortagne-sur-Gironde,45.498,-0.778
17257,Néré,45.977,-0.242
17260,Neuvicq,45.254,-0.166
17261,Neuvicq-le-Château,45.812,-0.161
17268,Nuaillé-sur-Boutonne,46.017,-0.41
17269,Orignolles,45.221,-0.234
17271,Paillé,45.986,-0.389
17276,Le Pin,45.317,-0.293
17281,Polignac,45.28,-0.306
17282,Pommiers-Moulons,45.328,-0.349
17287,Pouillac,45.272,-0.259
17290,Prignac,45.832,-0.347
17301,Romazières,45.991,-0.176
17305,Rouffignac,45.336,-0.452
17310,Saint-André-de-Lidon,45.583,-0.757
17319,Sainte-Colombe,45.282,-0.274
17334,Saint-Georges-de-Longuepierre,46.042,-0.397
17358,Saint-Mandé-sur-Brédoire,46.037,-0.278
17365,Saint-Martin-d'Ary,45.218,-0.201
17367,Saint-Martin-de-Juillers,45.939,-0.344
17377,Saint-Ouen-la-Thène,45.864,-0.17
17378,Saint-Palais-de-Négrignac,45.274,-0.202
17383,Saint-Pierre-de-Juillers,45.946,-0.385
17386,Saint-Pierre-du-Palais,45.159,-0.151
17401,Saint-Séverin-sur-Boutonne,46.089,-0.429
17411,Saint-Trojan-les-Bains,45.832,-1.227
17416,Saleignes,46.017,-0.185
17417,Salignac-de-Mirambeau,45.351,-0.482
17422,Seigné,45.951,-0.214
17425,Semussac,45.599,-0.915
17426,Le Seure,45.793,-0.356
17427,Siecq,45.84,-0.191
17428,Sonnac,45.831,-0.282
17432,Souméras,45.294,-0.437
17433,Sousmoulins,45.307,-0.328
17437,Talmont-sur-Gironde,45.544,-0.902
17442,Thaims,45.616,-0.792
17445,Thézac,45.676,-0.789
17446,Thors,45.825,-0.316
17451,Les Touches-de-Périgny,45.908,-0.266
17454,Tugéras-Saint-Maurice,45.355,-0.408
17458,Vanzac,45.359,-0.299
17468,Vibrac,45.351,-0.34
17471,La Villedieu,46.065,-0.323
17473,Villemorin,45.994,-0.308
17477,Villiers-Couture,45.984,-0.152
17478,Vinax,46.034,-0.212
17485,Le Grand-Village-Plage,45.862,-1.243
18001,Achères,47.283,2.459
18002,Ainay-le-Vieil,46.664,2.544
18003,Les Aix-d'Angillon,47.193,2.562
18004,Allogny,47.234,2.307
18005,Allouis,47.178,2.241
18006,Annoix,46.969,2.543
18007,Apremont-sur-Allier,46.911,3.019
18008,Arçay,46.962,2.336
18009,Arcomps,46.676,2.426
18010,Ardenais,46.645,2.352
18011,Argent-sur-Sauldre,47.563,2.43
18012,Argenvières,47.141,2.992
18013,Arpheuilles,46.792,2.568
18014,Assigny,47.431,2.75
18015,Aubigny-sur-Nère,47.486,2.421
18016,Aubinges,47.219,2.586
18017,Augy-sur-Aubois,46.783,2.857
18018,Avord,47.032,2.666
18019,Azy,47.192,2.71
18020,Bannay,47.383,2.873
18021,Bannegon,46.807,2.728
18022,Barlieu,47.494,2.623
18023,Baugy,47.071,2.716
18024,Beddes,46.608,2.21
18025,Beffes,47.093,3.001
18026,Belleville-sur-Loire,47.502,2.846
18027,Bengy-sur-Craon,47.0,2.732
18028,Berry-Bouy,47.131,2.296
18029,Bessais-le-Fromental,46.748,2.775
18030,Blancafort,47.535,2.542
18031,Blet,46.882,2.731
18032,Boulleret,47.432,2.885
18034,Bouzais,46.705,2.47
18035,Brécy,47.13,2.63
18036,Brinay,47.164,2.112
18037,Brinon-sur-Sauldre,47.568,2.226
18038,Bruère-Allichamps,46.776,2.429
18039,Bué,47.31,2.794
18040,Bussy,46.897,2.621
18041,La Celette,46.638,2.523
18042,La Celle,46.771,2.459
18043,La Celle-Condé,46.789,2.177
18044,Cerbois,47.111,2.106
18045,Chalivoy-Milon,46.86,2.702
18046,Chambon,46.778,2.334
18047,La Chapelle-d'Angillon,47.371,2.44
18048,La Chapelle-Hugon,46.896,2.954
18049,La Chapelle-Montlinard,47.178,2.986
18051,La Chapelotte,47.334,2.599
18052,Charenton-du-Cher,46.743,2.653
18053,Charentonnay,47.142,2.87
18054,Charly,46.902,2.763
18055,Chârost,46.991,2.128
18056,Chassy,47.044,2.833
18057,Châteaumeillant,46.555,2.207
18058,Châteauneuf-sur-Cher,46.866,2.34
18059,Le Châtelet,46.628,2.293
18060,Chaumont,46.842,2.75
18061,Chaumoux-Marcilly,47.143,2.78
18062,Le Chautay,46.985,2.964
18063,Chavannes,46.864,2.402
18064,Chéry,47.116,2.026
18065,Chezal-Benoît,46.832,2.111
18066,Civray,46.974,2.185
18067,Clémont,47.563,2.331
18068,Cogny,46.851,2.644
18069,Colombiers,46.7,2.557
18070,Concressault,47.492,2.57
18071,Contres,46.858,2.496
18072,Cornusse,46.956,2.733
18073,Corquoy,46.892,2.298
18074,Couargues,47.284,2.927
18075,Cours-les-Barres,47.022,3.038
18076,Coust,46.684,2.599
18077,Couy,47.109,2.828
18078,Crézançay-sur-Cher,46.814,2.343
18079,Crézancy-en-Sancerre,47.304,2.748
18080,Croisy,46.93,2.829
18081,Crosses,47.008,2.568
18082,Cuffy,46.969,3.038
18083,Culan,46.546,2.356
18084,Dampierre-en-Crot,47.456,2.574
18085,Dampierre-en-Graçay,47.183,1.941
18086,Drevant,46.698,2.523
18087,Dun-sur-Auron,46.892,2.561
18088,Ennordres,47.423,2.41
18089,Épineuil-le-Fleuriel,46.571,2.556
18090,Étréchy,47.16,2.716
18091,Farges-Allichamps,46.758,2.411
18092,Farges-en-Septaine,47.066,2.641
18093,Faverdines,46.637,2.46
18094,Feux,47.229,2.867
18095,Flavigny,46.962,2.8
18096,Foëcy,47.18,2.155
18097,Fussy,47.141,2.426
18098,Gardefort,47.26,2.824
18099,Garigny,47.088,2.883
18100,Genouilly,47.191,1.885
18101,Germigny-l'Exempt,46.915,2.882
18102,Givardon,46.833,2.808
18103,Graçay,47.141,1.857
18104,Groises,47.206,2.812
18105,Gron,47.116,2.737
18106,Grossouvre,46.872,2.936
18107,La Groutte,46.69,2.513
18108,La Guerche-sur-l'Aubois,46.952,2.945
18109,Henrichemont,47.298,2.536
18110,Herry,47.228,2.942
18111,Humbligny,47.262,2.648
18112,Ids-Saint-Roch,46.714,2.258
18113,Ignol,46.958,2.864
18114,Ineuil,46.769,2.276
18115,Ivoy-le-Pré,47.355,2.51
18116,Jalognes,47.229,2.778
18117,Jars,47.391,2.667
18118,Jouet-sur-l'Aubois,47.046,3.003
18119,Jussy-Champagne,46.991,2.646
18120,Jussy-le-Chaudrier,47.121,2.943
18121,Lantan,46.905,2.662
18122,Lapan,46.921,2.296
18124,Lazenay,47.067,2.077
18125,Léré,47.466,2.873
18126,Levet,46.93,2.392
18127,Lignières,46.762,2.205
18128,Limeux,47.077,2.125
18130,Loye-sur-Arnon,46.633,2.402
18132,Lugny-Champagne,47.178,2.828
18133,Lunery,46.938,2.258
18134,Lury-sur-Arnon,47.135,2.064
18135,Maisonnais,46.648,2.22
18136,Marçais,46.696,2.353
18137,Mareuil-sur-Arnon,46.879,2.163
18138,Marmagne,47.089,2.271
18139,Marseilles-lès-Aubigny,47.07,2.994
18140,Massay,47.155,1.986
18141,Mehun-sur-Yèvre,47.136,2.22
18142,Meillant,46.781,2.507
18143,Menetou-Couture,47.042,2.936
18144,Menetou-Râtel,47.348,2.752
18145,Menetou-Salon,47.242,2.49
18146,Ménétréol-sous-Sancerre,47.318,2.867
18147,Ménétréol-sur-Sauldre,47.449,2.289
18148,Méreau,47.179,2.052
18149,Méry-ès-Bois,47.309,2.379
18150,Méry-sur-Cher,47.248,1.994
18151,Montigny,47.228,2.688
18152,Montlouis,46.807,2.247
18153,Morlac,46.727,2.317
18154,Mornay-Berry,47.054,2.865
18155,Mornay-sur-Allier,46.816,3.011
18156,Morogues,47.257,2.596
18157,Morthomiers,47.044,2.272
18158,Moulins-sur-Yèvre,47.094,2.528
18159,Nançay,47.367,2.176
18160,Nérondes,47.004,2.838
18161,Neuilly-en-Dun,46.802,2.783
18162,Neuilly-en-Sancerre,47.306,2.656
18163,Neuvy-Deux-Clochers,47.281,2.689
18164,Neuvy-le-Barrois,46.86,3.02
18165,Neuvy-sur-Barangeon,47.322,2.271
18166,Nohant-en-Goût,47.09,2.581
18167,Nohant-en-Graçay,47.134,1.912
18168,Le Noyer,47.364,2.666
18169,Nozières,46.735,2.421
18170,Oizon,47.453,2.513
18171,Orcenais,46.71,2.414
18172,Orval,46.722,2.467
18173,Osmery,46.939,2.658
18174,Osmoy,47.063,2.506
18175,Ourouer-les-Bourdelins,46.921,2.79
18176,Parassy,47.242,2.538
18177,Parnay,46.851,2.556
18178,La Perche,46.633,2.574
18179,Pigny,47.164,2.444
18181,Plou,47.032,2.148
18182,Poisieux,47.032,2.089
18183,Le Pondy,46.8,2.638
18184,Précy,47.09,2.929
18185,Presly,47.387,2.323
18186,Preuilly,47.095,2.164
18187,Préveranges,46.453,2.253
18188,Primelles,46.907,2.213
18189,Quantilly,47.224,2.445
18190,Quincy,47.13,2.156
18191,Raymond,46.972,2.69
18192,Reigny,46.59,2.342
18193,Rezay,46.672,2.175
18194,Rians,47.185,2.62
18195,Sagonne,46.86,2.829
18196,Saint-Aignan-des-Noyers,46.755,2.822
18197,Saint-Amand-Montrond,46.726,2.52
18198,Saint-Ambroix,46.936,2.124
18199,Saint-Baudel,46.851,2.205
18200,Saint-Bouize,47.271,2.892
18201,Saint-Caprais,46.971,2.299
18202,Saint-Céols,47.219,2.636
18203,Saint-Christophe-le-Chaudry,46.583,2.389
18204,Saint-Denis-de-Palin,46.933,2.519
18205,Saint-Doulchard,47.111,2.357
18206,Saint-Éloy-de-Gy,47.169,2.331
18207,Saint-Florent-sur-Cher,46.991,2.254
18208,Sainte-Gemme-en-Sancerrois,47.4,2.821
18209,Saint-Georges-de-Poisieux,46.683,2.481
18210,Saint-Georges-sur-la-Prée,47.22,1.95
18211,Saint-Georges-sur-Moulon,47.186,2.421
18212,Saint-Germain-des-Bois,46.889,2.451
18213,Saint-Germain-du-Puy,47.108,2.479
18214,Saint-Hilaire-de-Court,47.201,2.003
18215,Saint-Hilaire-de-Gondilly,47.024,2.902
18216,Saint-Hilaire-en-Lignières,46.738,2.13
18217,Saint-Jeanvrin,46.596,2.242
18219,Saint-Laurent,47.242,2.185
18220,Saint-Léger-le-Petit,47.115,2.999
18221,Saint-Loup-des-Chaumes,46.826,2.382
18223,Saint-Martin-d'Auxigny,47.21,2.382
18224,Saint-Martin-des-Champs,47.173,2.935
18225,Saint-Maur,46.569,2.288
18226,Saint-Michel-de-Volangis,47.143,2.481
18227,Sainte-Montaine,47.502,2.322
18228,Saint-Outrille,47.14,1.811
18229,Saint-Palais,47.249,2.411
18230,Saint-Pierre-les-Bois,46.672,2.283
18231,Saint-Pierre-les-Étieux,46.734,2.594
18232,Saint-Priest-la-Marche,46.449,2.184
18233,Saint-Satur,47.346,2.854
18234,Saint-Saturnin,46.506,2.24
18235,Sainte-Solange,47.142,2.551
18236,Saint-Symphorien,46.807,2.304
18237,Sainte-Thorette,47.078,2.207
18238,Saint-Vitte,46.539,2.529
18240,Sancergues,47.163,2.9
18241,Sancerre,47.326,2.822
18242,Sancoins,46.825,2.914
18243,Santranges,47.503,2.759
18244,Saugy,46.968,2.113
18245,Saulzais-le-Potier,46.602,2.492
18246,Savigny-en-Sancerre,47.444,2.798
18247,Savigny-en-Septaine,47.046,2.568
18248,Senneçay,46.952,2.44
18249,Sens-Beaujeu,47.334,2.689
18250,Serruelles,46.882,2.38
18251,Sévry,47.138,2.823
18252,Sidiailles,46.512,2.315
18253,Soulangis,47.18,2.515
18255,Le Subdray,47.018,2.31
18256,Subligny,47.396,2.752
18257,Sury-près-Léré,47.483,2.845
18258,Sury-en-Vaux,47.372,2.804
18259,Sury-ès-Bois,47.46,2.711
18260,Tendron,46.98,2.82
18261,Thaumiers,46.822,2.67
18262,Thauvenay,47.301,2.873
18263,Thénioux,47.262,1.939
18264,Thou,47.422,2.672
18265,Torteron,47.01,2.984
18266,Touchay,46.715,2.21
18268,Uzay-le-Venon,46.824,2.457
18269,Vailly-sur-Sauldre,47.456,2.651
18270,Vallenay,46.773,2.378
18271,Vasselay,47.161,2.386
18272,Veaugues,47.266,2.756
18273,Venesmes,46.847,2.282
18274,Verdigny,47.349,2.811
18275,Vereaux,46.874,2.877
18276,Vernais,46.767,2.709
18277,Verneuil,46.821,2.601
18278,Vesdun,46.553,2.439
18279,Vierzon,47.237,2.079
18280,Vignoux-sous-les-Aix,47.184,2.47
18281,Vignoux-sur-Barangeon,47.208,2.18
18282,Villabon,47.102,2.679
18283,Villecelin,46.821,2.195
18284,Villegenon,47.418,2.599
18285,Villeneuve-sur-Cher,47.028,2.223
18286,Villequiers,47.078,2.791
18287,Vinon,47.282,2.832
18288,Vorly,46.94,2.473
18289,Vornay,46.966,2.595
18290,Vouzeron,47.272,2.216
19001,Affieux,45.508,1.768
19002,Aix,45.613,2.392
19009,Les Angles-sur-Corrèze,45.31,1.804
19011,Arnac-Pompadour,45.411,1.362
19016,Bar,45.342,1.815
19021,Bellechassagne,45.649,2.222
19022,Benayes,45.523,1.468
19024,Beyssac,45.368,1.419
19025,Beyssenac,45.402,1.304
19028,Bort-les-Orgues,45.393,2.492
19030,Brignac-la-Plaine,45.177,1.333
19033,Bugeat,45.59,1.93
19036,Chamberet,45.602,1.72
19038,Chameyrat,45.248,1.706
19041,Chanac-les-Mines,45.27,1.817
19042,Chanteix,45.312,1.623
19048,Le Chastang,45.175,1.733
19053,Chaveroche,45.566,2.252
19055,Chirac-Bellevue,45.453,2.308
19061,Cornil,45.214,1.697
19064,Couffy-sur-Sarsonne,45.672,2.345
19065,Courteix,45.646,2.344
19066,Cublac,45.156,1.306
19074,L'Église-aux-Bois,45.658,1.796
19075,Espagnac,45.241,1.899
19080,Eygurande,45.677,2.424
19082,Favars,45.263,1.67
19083,Feyt,45.684,2.479
19085,Gimel-les-Cascades,45.304,1.842
19095,Lacelle,45.643,1.833
19096,Ladignac-sur-Rondelles,45.23,1.825
19098,Lagarde-Marc-la-Tour,45.186,1.818
19101,Laguenne-sur-Avalouze,45.24,1.787
19103,Lamazière-Haute,45.675,2.386
19108,Laroche-près-Feyt,45.707,2.499
19112,Lestards,45.541,1.864
19113,Liginiac,45.405,2.323
19114,Lignareix,45.614,2.302
19121,Lubersac,45.454,1.4
19122,Madranges,45.468,1.797
19128,Margerides,45.456,2.416
19134,Merlines,45.625,2.458
19135,Mestes,45.493,2.318
19139,Millevaches,45.646,2.089
19141,Monestier-Merlines,45.65,2.489
19142,Monestier-Port-Dieu,45.496,2.49
19144,Montgibaud,45.509,1.421
19146,Naves,45.315,1.751
19155,Orliac-de-Bar,45.375,1.805
19158,Pandrignes,45.221,1.859
19164,Peyrelevade,45.71,2.037
19165,Peyrissac,45.506,1.694
19167,Confolent-Port-Dieu,45.536,2.498
19175,Roche-le-Peyroux,45.428,2.38
19190,Saint-Bonnet-près-Bort,45.507,2.426
19194,Saint-Clément,45.331,1.687
19198,Saint-Éloy-les-Tuileries,45.455,1.278
19199,Saint-Étienne-aux-Clos,45.566,2.45
19200,Saint-Étienne-la-Geneste,45.451,2.349
19201,Saint-Exupéry-les-Roches,45.511,2.37
19203,Sainte-Fortunade,45.207,1.763
19204,Saint-Fréjoux,45.556,2.378
19206,Saint-Germain-Lavolps,45.608,2.214
19207,Saint-Germain-les-Vergnes,45.267,1.621
19209,Saint-Hilaire-les-Courbes,45.598,1.821
19216,Saint-Julien-le-Vendômois,45.458,1.321
19219,Sainte-Marie-Lapanouze,45.433,2.346
19220,Saint-Martial-de-Gimel,45.272,1.886
19223,Saint-Martin-Sepert,45.443,1.482
19226,Saint-Merd-les-Oussines,45.623,2.032
19227,Saint-Mexant,45.29,1.676
19230,Saint-Pardoux-Corbier,45.443,1.455
19232,Saint-Pardoux-le-Neuf,45.613,2.331
19233,Saint-Pardoux-le-Vieux,45.602,2.272
19235,Saint-Paul,45.206,1.898
19236,Saint-Priest-de-Gimel,45.309,1.894
19238,Saint-Rémy,45.654,2.274
19240,Saint-Salvadour,45.391,1.766
19241,Saint-Setiers,45.697,2.117
19243,Saint-Sornin-Lavolps,45.374,1.371
19244,Saint-Sulpice-les-Bois,45.613,2.142
19247,Saint-Victour,45.466,2.386
19252,Sarroux - Saint Julien,45.431,2.468
19254,Ségur-le-Château,45.428,1.304
19261,Sornac,45.669,2.18
19262,Soudaine-Lavinadière,45.546,1.727
19266,Thalamy,45.507,2.458
19268,Toy-Viam,45.645,1.93
19269,Treignac,45.552,1.801
19270,Troche,45.397,1.448
19272,Tulle,45.273,1.763
19275,Ussel,45.55,2.304
19277,Valiergues,45.475,2.282
19281,Veix,45.501,1.838
19283,Veyrières,45.489,2.396
19284,Viam,45.618,1.887
21004,Aignay-le-Duc,47.672,4.751
21006,Aisey-sur-Seine,47.748,4.578
21009,Allerey,47.19,4.421
21012,Ampilly-le-Sec,47.81,4.503
21015,Antigny-la-Ville,47.101,4.56
21023,Arnay-le-Duc,47.128,4.48
21025,Arrans,47.69,4.328
21026,Asnières-en-Montagne,47.713,4.293
21028,Athée,47.225,5.362
21029,Athie,47.562,4.258
21032,Aubigny-la-Ronce,46.988,4.596
21034,Autricourt,47.993,4.622
21036,Auxant,47.13,4.619
21038,Auxonne,47.189,5.414
21044,Balot,47.82,4.443
21046,Bard-le-Régulier,47.146,4.302
21052,Beaulieu,47.726,4.733
21055,Beaunotte,47.681,4.716
21058,Belan-sur-Ource,47.952,4.639
21061,Bellenod-sur-Seine,47.695,4.645
21066,Bessey-la-Cour,47.103,4.605
21068,Beurey-Bauguay,47.232,4.43
21074,Billey,47.142,5.42
21077,Bissey-la-Côte,47.912,4.707
21078,Bissey-la-Pierre,47.843,4.426
21083,Blanot,47.179,4.236
21087,Bligny-sur-Ouche,47.115,4.683
21090,Boudreville,47.93,4.833
21093,Bouix,47.9,4.468
21102,Brazey-en-Morvan,47.172,4.276
21104,Brémur-et-Vaurois,47.73,4.609
21109,Brion-sur-Ource,47.906,4.67
21114,Buffon,47.657,4.275
21115,Buncey,47.817,4.577
21116,Bure-les-Templiers,47.732,4.911
21117,Busseaut,47.739,4.652
21123,Buxerolles,47.808,4.956
21124,Censerey,47.198,4.336
21125,Cérilly,47.856,4.489
21129,Chambain,47.795,4.919
21134,Chamesson,47.783,4.541
21138,Champdôtre,47.182,5.3
21139,Champeau-en-Morvan,47.273,4.156
21140,Champignolles,47.051,4.568
21143,Channay,47.891,4.32
21149,Charrey-sur-Seine,47.952,4.54
21150,Chassagne-Montrachet,46.932,4.727
21154,Châtillon-sur-Seine,47.858,4.592
21157,Chaugey,47.746,4.95
21159,La Chaume,47.881,4.823
21161,Chaumont-le-Bois,47.934,4.593
21165,Chemin-d'Aisey,47.732,4.552
21167,Cheuge,47.39,5.381
21180,Cléry,47.296,5.502
21181,Clomot,47.192,4.487
21190,Corcelles-les-Arts,46.945,4.797
21195,Cormot-Vauchignon,46.976,4.641
21196,Corpeau,46.927,4.76
21201,Coulmier-le-Sec,47.755,4.496
21202,Courban,47.916,4.739
21204,Courcelles-lès-Montbard,47.592,4.392
21212,Crépand,47.607,4.31
21216,Culètre,47.147,4.569
21221,Cussy-la-Colonne,47.042,4.648
21222,Cussy-le-Châtel,47.164,4.585
21229,Diancey,47.175,4.367
21233,Drambon,47.334,5.378
21236,Ébaty,46.929,4.78
21243,Écutigny,47.084,4.623
21250,Essarois,47.758,4.794
21252,Étais,47.701,4.44
21256,Étevaux,47.324,5.322
21258,Étrochey,47.889,4.52
21259,Fain-lès-Montbard,47.618,4.404
21260,Fain-lès-Moutiers,47.584,4.211
21262,Faverolles-lès-Lucey,47.827,4.867
21264,Le Fête,47.18,4.508
21268,Flagey-lès-Auxonne,47.131,5.394
21269,Flammerans,47.23,5.441
21274,Foissy,47.125,4.552
21279,Fontaines-les-Sèches,47.784,4.359
21280,Fontangy,47.346,4.372
21287,Fresnes,47.61,4.439
21296,Gevrolles,47.99,4.751
21302,Gomméville,47.957,4.484
21303,Les Goulles,47.878,4.906
21305,Grancey-sur-Ource,48.0,4.577
21309,Griselles,47.876,4.366
21312,Gurgy-la-Ville,47.852,4.938
21313,Gurgy-le-Château,47.829,4.928
21316,Heuilley-sur-Saône,47.336,5.465
21323,Jancigny,47.384,5.421
21325,Jouey,47.158,4.438
21327,Val-Mont,47.039,4.591
21328,Juillenay,47.361,4.272
21331,Labergement-lès-Auxonne,47.159,5.379
21334,Lacanche,47.075,4.556
21335,Lacour-d'Arcenay,47.36,4.235
21336,Laignes,47.826,4.368
21337,Lamarche-sur-Saône,47.273,5.37
21343,Larrey,47.897,4.424
21346,Leuglay,47.814,4.819
21349,Liernais,47.22,4.289
21350,Lignerolles,47.902,4.888
21354,Longecourt-lès-Culêtre,47.16,4.551
21357,Louesme,47.889,4.764
21359,Lucey,47.852,4.863
21363,Magnien,47.11,4.433
21364,Magny-Lambert,47.679,4.587
21367,Magny-Montarlot,47.249,5.347
21372,Maisey-le-Duc,47.845,4.676
21374,Maligny,47.084,4.505
21375,Manlay,47.12,4.333
21376,Marandeuil,47.345,5.341
21378,Marcenay,47.861,4.405
21379,Marcheseuil,47.145,4.372
21382,Marcilly-Ogny,47.249,4.402
21389,Marmagne,47.64,4.382
21393,Massingy,47.902,4.599
21396,Mauvilly,47.71,4.704
21398,Maxilly-sur-Saône,47.331,5.42
21402,Menesble,47.779,4.902
21403,Ménessaire,47.134,4.151
21410,Meulson,47.692,4.702
21412,Meursault,46.97,4.772
21414,Mimeure,47.152,4.495
21417,Missery,47.311,4.375
21418,Moitron,47.682,4.808
21419,Molesme,47.947,4.381
21420,Molinot,47.011,4.58
21422,Molphey,47.336,4.207
21425,Montbard,47.658,4.35
21427,Montceau-et-Écharnant,47.061,4.667
21429,Montigny-Montfort,47.584,4.339
21432,Montigny-sur-Aube,47.954,4.756
21434,Montlay-en-Auxois,47.331,4.268
21435,Montliot-et-Courcelles,47.895,4.56
21437,Montmançon,47.355,5.375
21438,Montmoyen,47.73,4.794
21444,Mosson,47.921,4.629
21445,La Motte-Ternant,47.317,4.327
21446,Moutiers-Saint-Jean,47.562,4.226
21447,Musigny,47.165,4.523
21451,Nesle-et-Massoult,47.778,4.427
21454,Nicey,47.866,4.294
21455,Nod-sur-Seine,47.773,4.599
21456,Nogent-lès-Montbard,47.604,4.37
21460,Noiron-sur-Seine,47.939,4.47
21461,Nolay,46.959,4.619
21465,Obtrée,47.931,4.565
21470,Origny,47.713,4.632
21476,Painblanc,47.149,4.625
21482,Perrigny-sur-l'Ognon,47.305,5.464
21484,Planay,47.737,4.375
21488,Poinçon-lès-Larrey,47.869,4.456
21493,Poncey-lès-Athée,47.236,5.385
21495,Pont,47.179,5.325
21496,Pontailler-sur-Saône,47.302,5.412
21499,Pothières,47.917,4.497
21510,Prusly-sur-Ource,47.88,4.643
21511,Puits,47.727,4.467
21512,Puligny-Montrachet,46.947,4.759
21516,Quincerot,47.617,4.271
21518,Quincy-le-Vicomte,47.618,4.24
21519,Recey-sur-Ource,47.78,4.863
21524,Riel-les-Eaux,47.988,4.681
21525,La Roche-en-Brenil,47.382,4.172
21526,Rochefort-sur-Brévon,47.741,4.706
21527,La Rochepot,46.958,4.676
21530,Rougemont,47.67,4.257
21531,Rouvray,47.418,4.112
21538,Saint-Andeux,47.396,4.093
21541,Saint-Aubin,46.95,4.711
21543,Saint-Broing-les-Moines,47.701,4.842
21545,Sainte-Colombe-sur-Seine,47.861,4.528
21546,Saint-Didier,47.317,4.173
21548,Saint-Germain-de-Modéon,47.372,4.124
21549,Saint-Germain-le-Rocheux,47.756,4.663
21550,Saint-Germain-lès-Senailly,47.598,4.281
21556,Saint-Léger-Triey,47.317,5.355
21557,Saint-Marc-sur-Seine,47.7,4.6
21560,Saint-Martin-de-la-Mer,47.237,4.229
21566,Saint-Pierre-en-Vaux,47.057,4.529
21567,Saint-Prix-lès-Arnay,47.113,4.504
21568,Saint-Rémy,47.651,4.301
21571,Saint-Sauveur,47.358,5.406
21572,Saint-Seine-en-Bâche,47.116,5.377
21582,Santenay,46.917,4.693
21583,Santosse,47.007,4.634
21584,Saulieu,47.284,4.232
21588,Saussey,47.064,4.61
21593,Savilly,47.122,4.278
21594,Savoisy,47.736,4.4
21602,Semond,47.713,4.572
21604,Senailly,47.583,4.267
21608,Sincey-lès-Rouvray,47.434,4.131
21610,Soissons-sur-Nacey,47.25,5.462
21615,Sussey,47.215,4.372
21618,Talmay,47.366,5.461
21626,Terrefondrée,47.728,4.842
21628,Thoires,47.941,4.682
21629,Thoisy-la-Berchère,47.261,4.332
21631,Thomirey,47.088,4.587
21636,Thury,47.028,4.527
21639,Tillenay,47.189,5.351
21641,Touillon,47.659,4.437
21653,Vannaire,47.916,4.571
21655,Vanvey,47.842,4.726
21660,Veilly,47.127,4.597
21664,Verdonnet,47.742,4.335
21671,Vertault,47.925,4.327
21674,Veuxhaulles-sur-Aube,47.939,4.812
21675,Vianges,47.166,4.324
21677,Vic-des-Prés,47.109,4.636
21678,Vic-sous-Thil,47.367,4.318
21680,Vielverge,47.268,5.452
21683,Viévy,47.058,4.456
21685,Villaines-en-Duesmois,47.687,4.52
21687,Villargoix,47.292,4.291
21693,Villedieu,47.908,4.384
21699,Villers-les-Pots,47.21,5.347
21700,Villers-Patras,47.934,4.547
21701,Villers-Rotin,47.156,5.407
21703,Villiers-en-Morvan,47.143,4.26
21704,Villiers-le-Duc,47.792,4.704
21706,Villotte-sur-Ource,47.866,4.692
21711,Vix,47.907,4.537
21713,Vonges,47.29,5.396
21715,Voudenay,47.094,4.38
21717,Voulaines-les-Templiers,47.831,4.777
22001,Allineuc,48.311,-2.867
22009,Le Bodéo,48.326,-2.922
22012,La Bouillie,48.584,-2.442
22013,Bourbriac,48.466,-3.2
22016,Île-de-Bréhat,48.851,-3.001
22023,Bulat-Pestivien,48.435,-3.333
22024,Calanhel,48.441,-3.476
22025,Callac,48.422,-3.416
22027,Le Cambout,48.059,-2.621
22031,Carnoët,48.36,-3.532
22033,Caurel,48.218,-3.039
22037,La Chapelle-Neuve,48.466,-3.441
22039,La Chèze,48.135,-2.663
22040,Coadout,48.515,-3.179
22043,Coëtlogon,48.133,-2.544
22045,Cohiniac,48.452,-2.947
22046,Le Mené,48.294,-2.522
22052,Duault,48.365,-3.436
22057,Le Faouët,48.679,-3.073
22059,Le Fœil,48.418,-2.914
22060,Gausson,48.293,-2.761
22062,Gomené,48.18,-2.492
22063,Gommenec'h,48.638,-3.048
22065,Goudelin,48.603,-3.023
22067,Grâces,48.545,-3.182
22068,Grâce-Uzel,48.25,-2.794
22070,Guingamp,48.561,-3.153
22072,Gurunhuel,48.508,-3.289
22073,La Harmoye,48.346,-2.969
22075,Hémonstoir,48.157,-2.85
22076,Hénanbihen,48.558,-2.382
22088,Kerien,48.409,-3.23
22099,Lanfains,48.365,-2.912
22112,Lannebert,48.651,-3.009
22119,Lanvellec,48.607,-3.528
22121,Lanvollon,48.633,-2.99
22122,Laurenan,48.215,-2.518
22124,Lescouët-Gouarec,48.169,-3.207
22126,Le Leslay,48.424,-2.965
22128,Locarn,48.333,-3.411
22132,Lohuec,48.462,-3.527
22136,Loudéac,48.174,-2.751
22138,Maël-Pestivien,48.404,-3.29
22139,Magoar,48.402,-3.177
22143,Matignon,48.602,-2.29
22144,La Méaugon,48.504,-2.847
22149,Merléac,48.273,-2.911
22150,Le Merzer,48.582,-3.075
22155,La Motte,48.231,-2.705
22156,Moustéru,48.528,-3.235
22157,Le Moustoir,48.274,-3.492
22158,Guerlédan,48.196,-2.984
22161,Pabu,48.583,-3.143
22170,Plaine-Haute,48.444,-2.859
22171,Plaintel,48.411,-2.81
22174,Pléboulle,48.595,-2.334
22176,Plédran,48.443,-2.745
22177,Pléguien,48.635,-2.948
22179,Fréhel,48.635,-2.362
22183,Plémet,48.186,-2.586
22188,Plerneuf,48.506,-2.88
22189,Plésidy,48.442,-3.126
22201,Plévenon,48.658,-2.32
22202,Plévin,48.224,-3.516
22203,Plœuc-L'Hermitage,48.344,-2.766
22207,Plouaret,48.619,-3.483
22215,Ploufragan,48.488,-2.808
22216,Plougonver,48.485,-3.375
22219,Plouguenast-Langast,48.277,-2.71
22223,Plouisy,48.584,-3.192
22225,Ploumagoar,48.53,-3.11
22227,Plounérin,48.567,-3.548
22231,Plourac'h,48.418,-3.552
22234,Plouvara,48.497,-2.926
22235,Plouzélambre,48.648,-3.537
22236,Pludual,48.667,-2.987
22238,Plufur,48.611,-3.573
22241,Plumieux,48.106,-2.592
22242,Plurien,48.61,-2.4
22243,Plusquellec,48.399,-3.484
22248,Pommerit-le-Vicomte,48.618,-3.103
22249,Pont-Melvez,48.474,-3.285
22255,La Prénessaye,48.186,-2.648
22260,Le Quillio,48.24,-2.898
22262,Quintin,48.403,-2.912
22268,Ruca,48.561,-2.335
22271,Saint-Adrien,48.49,-3.133
22272,Saint-Agathon,48.563,-3.101
22275,Saint-Barnabé,48.138,-2.702
22276,Saint-Bihy,48.376,-2.967
22277,Saint-Brandan,48.39,-2.864
22279,Saint-Caradec,48.192,-2.868
22281,Saint-Carreuc,48.404,-2.75
22282,Saint-Cast-le-Guildo,48.604,-2.249
22283,Saint-Clet,48.67,-3.137
22284,Saint-Connan,48.412,-3.076
22285,Saint-Connec,48.18,-2.926
22287,Saint-Donan,48.466,-2.887
22288,Saint-Étienne-du-Gué-de-l'Isle,48.086,-2.644
22289,Saint-Fiacre,48.455,-3.052
22291,Saint-Gildas,48.422,-3.007
22293,Saint-Gilles-les-Bois,48.657,-3.091
22294,Saint-Gilles-Pligeaux,48.38,-3.087
22295,Saint-Gilles-Vieux-Marché,48.25,-2.97
22296,Saint-Glen,48.352,-2.522
22300,Saint-Hervé,48.274,-2.812
22307,Saint-Julien,48.448,-2.817
22313,Saint-Martin-des-Prés,48.306,-2.965
22314,Saint-Maudan,48.111,-2.768
22316,Saint-Mayeux,48.265,-3.016
22320,Saint-Nicodème,48.354,-3.339
22322,Saint-Péver,48.482,-3.091
22323,Saint-Pôtan,48.557,-2.293
22328,Saint-Servais,48.387,-3.374
22330,Saint-Thélo,48.246,-2.841
22335,Senven-Léhart,48.435,-3.064
22338,Squiffiec,48.638,-3.167
22344,Trébrivan,48.31,-3.482
22350,Tréduder,48.654,-3.566
22351,Treffrin,48.298,-3.527
22354,Tréglamus,48.557,-3.255
22358,Trégonneau,48.614,-3.163
22360,Trégueux,48.48,-2.745
22361,Tréguidel,48.6,-2.943
22370,Tréméven,48.671,-3.032
22372,Trémuson,48.525,-2.848
22375,Tressignaux,48.61,-2.975
22376,Trévé,48.216,-2.807
22378,Trévérec,48.66,-3.055
22384,Uzel,48.281,-2.848
22386,Le Vieux-Bourg,48.391,-3.004
22387,Le Vieux-Marché,48.614,-3.438
23001,Ahun,46.086,2.024
23002,Ajain,46.211,1.996
23004,Anzême,46.254,1.85
23005,Arfeuille-Châtain,46.06,2.435
23006,Arrènes,46.072,1.567
23009,Auge,46.237,2.333
23010,Augères,46.08,1.728
23013,Auzances,46.026,2.507
23015,Azerables,46.352,1.475
23017,Basville,45.858,2.412
23018,Bazelat,46.35,1.532
23021,Bénévent-l'Abbaye,46.118,1.629
23022,Bétête,46.362,2.07
23023,Blaudeix,46.23,2.085
23025,Bonnat,46.323,1.914
23026,Bord-Saint-Georges,46.252,2.287
23029,Le Bourg-d'Hem,46.301,1.841
23031,Boussac,46.348,2.223
23032,Boussac-Bourg,46.368,2.216
23033,La Brionne,46.164,1.789
23034,Brousse,45.972,2.453
23035,Budelière,46.221,2.475
23036,Bussière-Dunoise,46.256,1.76
23037,Bussière-Nouvelle,46.014,2.42
23038,Bussière-Saint-Georges,46.402,2.155
23039,La Celle-Dunoise,46.312,1.782
23040,La Celle-sous-Gouzon,46.219,2.209
23041,La Cellette,46.401,2.01
23044,Chambon-Sainte-Croix,46.353,1.77
23045,Chambon-sur-Voueize,46.193,2.419
23046,Chambonchard,46.161,2.542
23047,Chamborand,46.157,1.573
23049,Champsanglard,46.281,1.889
23050,La Chapelle-Baloue,46.359,1.569
23052,La Chapelle-Taillefert,46.114,1.834
23053,Chard,45.95,2.49
23054,Charron,46.038,2.564
23055,Châtelard,45.964,2.467
23057,Châtelus-Malvaleix,46.297,2.033
23062,Chéniers,46.351,1.828
23064,Clugnat,46.299,2.12
23065,Colondannes,46.288,1.617
23066,Le Compas,46.004,2.453
23067,La Courtine,45.73,2.244
23068,Cressat,46.134,2.093
23069,Crocq,45.85,2.365
23070,Crozant,46.382,1.613
23072,Domeyrot,46.249,2.147
23073,Dontreix,45.979,2.547
23075,Dun-le-Palestel,46.303,1.662
23076,Évaux-les-Bains,46.169,2.499
23082,Fleurat,46.232,1.683
23083,Fontanières,46.107,2.519
23084,La Forêt-du-Temple,46.427,1.906
23087,Fresselines,46.378,1.699
23088,Gartempe,46.152,1.726
23089,Genouillac,46.345,1.994
23092,Glénic,46.23,1.941
23095,Le Grand-Bourg,46.16,1.655
23096,Guéret,46.163,1.871
23098,Jalesches,46.295,2.082
23100,Jarnages,46.19,2.08
23101,Jouillat,46.268,1.938
23102,Ladapeyre,46.249,2.05
23103,Lafat,46.338,1.606
